[
    {
        "CITY": "Aabenraa",
        "STATE": "South Denmark",
        "COUNTRY": "Denmark",
        "LATITUDE": 55.04,
        "LONGITUDE": 9.42
    },
    {
        "CITY": "Laâyoune",
        "STATE": "Western Sahara",
        "COUNTRY": "Morocco",
        "LATITUDE": 27.07,
        "LONGITUDE": -13.47
    },
    {
        "CITY": "Aalborg",
        "STATE": "North Jutland",
        "COUNTRY": "Denmark",
        "LATITUDE": 57.05,
        "LONGITUDE": 9.92
    },
    {
        "CITY": "Aalborg",
        "STATE": "North Denmark Region",
        "COUNTRY": "Denmark",
        "LATITUDE": 57.05,
        "LONGITUDE": 10.06
    },
    {
        "CITY": "Aalborg",
        "STATE": "North Jutland",
        "COUNTRY": "Denmark",
        "LATITUDE": 57.06,
        "LONGITUDE": 10.05
    },
    {
        "CITY": "Aalborg",
        "STATE": "North Jutland",
        "COUNTRY": "Denmark",
        "LATITUDE": 57.06,
        "LONGITUDE": 9.96
    },
    {
        "CITY": "Aarhus",
        "STATE": "Aarhus",
        "COUNTRY": "Denmark",
        "LATITUDE": 56.16,
        "LONGITUDE": 10.24
    },
    {
        "CITY": "Abadan",
        "STATE": "Khuzestan",
        "COUNTRY": "Iran",
        "LATITUDE": 30.34,
        "LONGITUDE": 48.27
    },
    {
        "CITY": "Abbot Point",
        "STATE": "Queensland",
        "COUNTRY": "Australia",
        "LATITUDE": -19.86,
        "LONGITUDE": 148.09
    },
    {
        "CITY": "Aberdeen",
        "STATE": "Scotland",
        "COUNTRY": "U.K.",
        "LATITUDE": 57.14,
        "LONGITUDE": -2.08
    },
    {
        "CITY": "Abidjan",
        "STATE": "Abidjan",
        "COUNTRY": "Ivory Coast",
        "LATITUDE": 5.27,
        "LONGITUDE": -4.02
    },
    {
        "CITY": "Turku",
        "STATE": "Southwest Finland",
        "COUNTRY": "Finland",
        "LATITUDE": 60.44,
        "LONGITUDE": 22.22
    },
    {
        "CITY": "Abo",
        "STATE": "Ondo State",
        "COUNTRY": "Nigeria",
        "LATITUDE": 5.7,
        "LONGITUDE": 4.47
    },
    {
        "CITY": "Himeji",
        "STATE": "Hyogo",
        "COUNTRY": "Japan",
        "LATITUDE": 34.77,
        "LONGITUDE": 134.61
    },
    {
        "CITY": "Bilbao",
        "STATE": "Basque Country",
        "COUNTRY": "Spain",
        "LATITUDE": 43.35,
        "LONGITUDE": -3.03
    },
    {
        "CITY": "Abu Al Bukhoosh",
        "STATE": "Abu Dhabi",
        "COUNTRY": "U.A.E.",
        "LATITUDE": 25.46,
        "LONGITUDE": 53.08
    },
    {
        "CITY": "Jubail",
        "STATE": "Eastern Province",
        "COUNTRY": "Saudi Arabia",
        "LATITUDE": 27.3,
        "LONGITUDE": 49.69
    },
    {
        "CITY": "Abu Dhabi",
        "STATE": "Abu Dhabi",
        "COUNTRY": "U.A.E.",
        "LATITUDE": 24.53,
        "LONGITUDE": 54.39
    },
    {
        "CITY": "Abu Marine Terminal",
        "STATE": "Sarawak",
        "COUNTRY": "Malaysia",
        "LATITUDE": 6.13,
        "LONGITUDE": 105.29
    },
    {
        "CITY": "Aburakawa",
        "STATE": "Iwate",
        "COUNTRY": "Japan",
        "LATITUDE": 40.84,
        "LONGITUDE": 140.74
    },
    {
        "CITY": "Aburatsu",
        "STATE": "Miyazaki",
        "COUNTRY": "Japan",
        "LATITUDE": 31.57,
        "LONGITUDE": 131.4
    },
    {
        "CITY": "Acajutla",
        "STATE": "Sonsonate",
        "COUNTRY": "El Salvador",
        "LATITUDE": 13.56,
        "LONGITUDE": -89.84
    },
    {
        "CITY": "Acandia",
        "STATE": "South Aegean",
        "COUNTRY": "Greece",
        "LATITUDE": 36.45,
        "LONGITUDE": 28.23
    },
    {
        "CITY": "São João da Barra",
        "STATE": "Rio de Janeiro",
        "COUNTRY": "Brazil",
        "LATITUDE": -21.84,
        "LONGITUDE": -41.0
    },
    {
        "CITY": "Adabiyah",
        "STATE": "Suez",
        "COUNTRY": "Egypt",
        "LATITUDE": 29.88,
        "LONGITUDE": 32.48
    },
    {
        "CITY": "Adak",
        "STATE": "Alaska",
        "COUNTRY": "U.S.A.",
        "LATITUDE": 51.85,
        "LONGITUDE": -176.65
    },
    {
        "CITY": "Adamas",
        "STATE": "Milos",
        "COUNTRY": "Greece",
        "LATITUDE": 36.72,
        "LONGITUDE": 24.45
    },
    {
        "CITY": "Adang Bay",
        "STATE": "East Kalimantan",
        "COUNTRY": "Indonesia",
        "LATITUDE": -1.72,
        "LONGITUDE": 116.63
    },
    {
        "CITY": "Adelaide",
        "STATE": "South Australia",
        "COUNTRY": "Australia",
        "LATITUDE": -34.78,
        "LONGITUDE": 138.48
    },
    {
        "CITY": "Adelaide",
        "STATE": "South Australia",
        "COUNTRY": "Australia",
        "LATITUDE": -34.83,
        "LONGITUDE": 138.51
    },
    {
        "CITY": "Aden",
        "STATE": "Aden Governorate",
        "COUNTRY": "Yemen",
        "LATITUDE": 12.77,
        "LONGITUDE": 44.92
    },
    {
        "CITY": "Mississippi",
        "STATE": "Mississippi",
        "COUNTRY": "U.S.A.",
        "LATITUDE": 29.94,
        "LONGITUDE": -90.31
    },
    {
        "CITY": "Rio Grande",
        "STATE": "Rio Grande do Sul",
        "COUNTRY": "Brazil",
        "LATITUDE": -23.81,
        "LONGITUDE": -45.38
    },
    {
        "CITY": "Aegean Sea",
        "STATE": "Greece",
        "COUNTRY": "Greece",
        "LATITUDE": 39.17,
        "LONGITUDE": 23.22
    },
    {
        "CITY": "Boca Chica",
        "STATE": "Santo Domingo",
        "COUNTRY": "Dominican Republic",
        "LATITUDE": 18.4,
        "LONGITUDE": -69.61
    },
    {
        "CITY": "Agadir",
        "STATE": "Souss-Massa",
        "COUNTRY": "Morocco",
        "LATITUDE": 30.42,
        "LONGITUDE": -9.64
    },
    {
        "CITY": "Agbami Terminal",
        "STATE": "Lagos State",
        "COUNTRY": "Nigeria",
        "LATITUDE": 3.52,
        "LONGITUDE": 5.53
    },
    {
        "CITY": "Agia Marina",
        "STATE": "Crete",
        "COUNTRY": "Greece",
        "LATITUDE": 38.89,
        "LONGITUDE": 22.59
    },
    {
        "CITY": "Agia Trias",
        "STATE": "Attica",
        "COUNTRY": "Greece",
        "LATITUDE": 37.97,
        "LONGITUDE": 23.41
    },
    {
        "CITY": "Agioi Theodoroi",
        "STATE": "Corinthia",
        "COUNTRY": "Greece",
        "LATITUDE": 37.91,
        "LONGITUDE": 23.09
    },
    {
        "CITY": "Agotnes",
        "STATE": "Vestland",
        "COUNTRY": "Norway",
        "LATITUDE": 60.42,
        "LONGITUDE": 5.01
    },
    {
        "CITY": "Agria",
        "STATE": "Thessaly",
        "COUNTRY": "Greece",
        "LATITUDE": 39.34,
        "LONGITUDE": 23.01
    },
    {
        "CITY": "Agrico Chemical",
        "STATE": "Mississippi",
        "COUNTRY": "U.S.A.",
        "LATITUDE": 30.09,
        "LONGITUDE": -90.91
    },
    {
        "CITY": "Aguadilla",
        "STATE": "Puerto Rico",
        "COUNTRY": "Puerto Rico",
        "LATITUDE": 18.43,
        "LONGITUDE": -67.16
    },
    {
        "CITY": "Åhus",
        "STATE": "Skåne County",
        "COUNTRY": "Sweden",
        "LATITUDE": 55.93,
        "LONGITUDE": 14.33
    },
    {
        "CITY": "Ain Sukhna",
        "STATE": "Suez",
        "COUNTRY": "Egypt",
        "LATITUDE": 29.58,
        "LONGITUDE": 32.41
    },
    {
        "CITY": "Ain Sukhna",
        "STATE": "Suez",
        "COUNTRY": "Egypt",
        "LATITUDE": 29.65,
        "LONGITUDE": 32.36
    },
    {
        "CITY": "Airlie Island",
        "STATE": "Western Australia",
        "COUNTRY": "Australia",
        "LATITUDE": -21.31,
        "LONGITUDE": 115.17
    },
    {
        "CITY": "Aitutaki",
        "STATE": "Cook Islands",
        "COUNTRY": "Cook Is.",
        "LATITUDE": -18.82,
        "LONGITUDE": -159.78
    },
    {
        "CITY": "Ajaccio",
        "STATE": "Corsica",
        "COUNTRY": "France",
        "LATITUDE": 41.93,
        "LONGITUDE": 8.75
    },
    {
        "CITY": "Ajman",
        "STATE": "Ajman",
        "COUNTRY": "U.A.E.",
        "LATITUDE": 25.42,
        "LONGITUDE": 55.46
    },
    {
        "CITY": "Kemi",
        "STATE": "Lapland",
        "COUNTRY": "Finland",
        "LATITUDE": 65.66,
        "LONGITUDE": 24.51
    },
    {
        "CITY": "Akanehama",
        "STATE": "Chiba",
        "COUNTRY": "Japan",
        "LATITUDE": 35.66,
        "LONGITUDE": 139.99
    },
    {
        "CITY": "Kobe",
        "STATE": "Hyogo",
        "COUNTRY": "Japan",
        "LATITUDE": 34.61,
        "LONGITUDE": 135.02
    },
    {
        "CITY": "Kobe",
        "STATE": "Hyogo",
        "COUNTRY": "Japan",
        "LATITUDE": 34.62,
        "LONGITUDE": 135.02
    },
    {
        "CITY": "Molde",
        "STATE": "Møre og Romsdal",
        "COUNTRY": "Norway",
        "LATITUDE": 58.93,
        "LONGITUDE": 5.6
    },
    {
        "CITY": "Akita",
        "STATE": "Akita",
        "COUNTRY": "Japan",
        "LATITUDE": 39.75,
        "LONGITUDE": 140.06
    },
    {
        "CITY": "Akpo",
        "STATE": "Rivers State",
        "COUNTRY": "Nigeria",
        "LATITUDE": 3.18,
        "LONGITUDE": 6.8
    },
    {
        "CITY": "Akrotiri",
        "STATE": "Sovereign Base Area",
        "COUNTRY": "Cyprus",
        "LATITUDE": 34.57,
        "LONGITUDE": 33.03
    },
    {
        "CITY": "Al-Faw",
        "STATE": "Basra Governorate",
        "COUNTRY": "Iraq",
        "LATITUDE": 29.68,
        "LONGITUDE": 48.81
    },
    {
        "CITY": "Al Khums",
        "STATE": "Al Murgub",
        "COUNTRY": "Libya",
        "LATITUDE": 32.66,
        "LONGITUDE": 14.28
    },
    {
        "CITY": "Al Rayyan",
        "STATE": "Al Rayyan",
        "COUNTRY": "Qatar",
        "LATITUDE": 26.67,
        "LONGITUDE": 51.6
    },
    {
        "CITY": "Al Shaheen Terminal",
        "STATE": "Qatar",
        "COUNTRY": "Qatar",
        "LATITUDE": 26.55,
        "LONGITUDE": 52.06
    },
    {
        "CITY": "Ain Sokhna",
        "STATE": "Suez",
        "COUNTRY": "Egypt",
        "LATITUDE": 29.58,
        "LONGITUDE": 32.41
    },
    {
        "CITY": "Aladja",
        "STATE": "Delta",
        "COUNTRY": "Nigeria",
        "LATITUDE": 5.0,
        "LONGITUDE": 5.0
    },
    {
        "CITY": "Aland",
        "STATE": "Aland Islands",
        "COUNTRY": "Finland",
        "LATITUDE": 60.1,
        "LONGITUDE": 19.92
    },
    {
        "CITY": "Alang",
        "STATE": "Gujarat",
        "COUNTRY": "India",
        "LATITUDE": 21.4,
        "LONGITUDE": 72.21
    },
    {
        "CITY": "Alba",
        "STATE": "Scotland",
        "COUNTRY": "U.K.",
        "LATITUDE": 58.0,
        "LONGITUDE": 1.0
    },
    {
        "CITY": "Alba",
        "STATE": "Bahrain",
        "COUNTRY": "Bahrain",
        "LATITUDE": 26.19,
        "LONGITUDE": 50.69
    },
    {
        "CITY": "Campos dos Goytacazes",
        "STATE": "Rio de Janeiro",
        "COUNTRY": "Brazil",
        "LATITUDE": -22.15,
        "LONGITUDE": -40.02
    },
    {
        "CITY": "Albany",
        "STATE": "NY",
        "COUNTRY": "U.S.A.",
        "LATITUDE": 42.63,
        "LONGITUDE": -73.75
    },
    {
        "CITY": "Albany",
        "STATE": "Western Australia",
        "COUNTRY": "Australia",
        "LATITUDE": -35.04,
        "LONGITUDE": 117.89
    },
    {
        "CITY": "Al-Basra",
        "STATE": "Basra",
        "COUNTRY": "Iraq",
        "LATITUDE": 29.68,
        "LONGITUDE": 48.81
    },
    {
        "CITY": "Kingston upon Hull",
        "STATE": "East Riding of Yorkshire",
        "COUNTRY": "U.K.",
        "LATITUDE": 53.73,
        "LONGITUDE": -0.34
    },
    {
        "CITY": "Alcasa",
        "STATE": "Bolívar",
        "COUNTRY": "Venezuela",
        "LATITUDE": 8.33,
        "LONGITUDE": -62.71
    },
    {
        "CITY": "Alcúdia",
        "STATE": "Balearic Islands",
        "COUNTRY": "Spain",
        "LATITUDE": 39.83,
        "LONGITUDE": 3.14
    },
    {
        "CITY": "Santos",
        "STATE": "São Paulo",
        "COUNTRY": "Brazil",
        "LATITUDE": -23.97,
        "LONGITUDE": -46.3
    },
    {
        "CITY": "Alesund",
        "STATE": "Møre og Romsdal",
        "COUNTRY": "Norway",
        "LATITUDE": 62.47,
        "LONGITUDE": 6.15
    },
    {
        "CITY": "Hull",
        "STATE": "East Yorkshire",
        "COUNTRY": "U.K.",
        "LATITUDE": 53.74,
        "LONGITUDE": -0.3
    },
    {
        "CITY": "Alexandria",
        "STATE": "Alexandria Governorate",
        "COUNTRY": "Egypt",
        "LATITUDE": 31.19,
        "LONGITUDE": 29.87
    },
    {
        "CITY": "Alexandroupolis",
        "STATE": "Eastern Macedonia and Thrace",
        "COUNTRY": "Greece",
        "LATITUDE": 40.84,
        "LONGITUDE": 25.89
    },
    {
        "CITY": "Algeciras",
        "STATE": "Cádiz",
        "COUNTRY": "Spain",
        "LATITUDE": 36.13,
        "LONGITUDE": -5.43
    },
    {
        "CITY": "Algiers",
        "STATE": "Algiers Province",
        "COUNTRY": "Algeria",
        "LATITUDE": 36.77,
        "LONGITUDE": 3.08
    },
    {
        "CITY": "Algiers",
        "STATE": "Louisiana",
        "COUNTRY": "U.S.A.",
        "LATITUDE": 29.92,
        "LONGITUDE": -89.96
    },
    {
        "CITY": "Aliağa",
        "STATE": "İzmir",
        "COUNTRY": "Turkey",
        "LATITUDE": 38.83,
        "LONGITUDE": 26.95
    },
    {
        "CITY": "Aliağa",
        "STATE": "İzmir",
        "COUNTRY": "Turkey",
        "LATITUDE": 38.83,
        "LONGITUDE": 26.91
    },
    {
        "CITY": "Alicante",
        "STATE": "Valencian Community",
        "COUNTRY": "Spain",
        "LATITUDE": 38.33,
        "LONGITUDE": -0.49
    },
    {
        "CITY": "Alicante",
        "STATE": "Alicante",
        "COUNTRY": "Spain",
        "LATITUDE": 38.5,
        "LONGITUDE": 1.0
    },
    {
        "CITY": "Aliveri",
        "STATE": "Central Greece",
        "COUNTRY": "Greece",
        "LATITUDE": 38.39,
        "LONGITUDE": 24.04
    },
    {
        "CITY": "Alliance",
        "STATE": "Ohio",
        "COUNTRY": "U.S.A.",
        "LATITUDE": 29.69,
        "LONGITUDE": -89.97
    },
    {
        "CITY": "Southwood",
        "STATE": "Mississippi",
        "COUNTRY": "U.S.A.",
        "LATITUDE": 30.21,
        "LONGITUDE": -91.06
    },
    {
        "CITY": "Almeria",
        "STATE": "Andalusia",
        "COUNTRY": "Spain",
        "LATITUDE": 36.83,
        "LONGITUDE": -2.47
    },
    {
        "CITY": "Almirante",
        "STATE": "Bocas del Toro",
        "COUNTRY": "Panama",
        "LATITUDE": 9.26,
        "LONGITUDE": -82.36
    },
    {
        "CITY": "Alpha Zone",
        "STATE": "Tsa",
        "COUNTRY": "Argentina",
        "LATITUDE": -35.12,
        "LONGITUDE": -56.0
    },
    {
        "CITY": "Altamira",
        "STATE": "Tamaulipas",
        "COUNTRY": "Mexico",
        "LATITUDE": 22.48,
        "LONGITUDE": -97.89
    },
    {
        "CITY": "Rio de Janeiro",
        "STATE": "Rio de Janeiro",
        "COUNTRY": "Brazil",
        "LATITUDE": -22.82,
        "LONGITUDE": -43.15
    },
    {
        "CITY": "Rio de Janeiro",
        "STATE": "Rio de Janeiro",
        "COUNTRY": "Brazil",
        "LATITUDE": -22.81,
        "LONGITUDE": -43.15
    },
    {
        "CITY": "Altındağ",
        "STATE": "Ankara",
        "COUNTRY": "Turkey",
        "LATITUDE": 40.76,
        "LONGITUDE": 29.53
    },
    {
        "CITY": "Altona",
        "STATE": "Hamburg",
        "COUNTRY": "Germany",
        "LATITUDE": 53.54,
        "LONGITUDE": 9.93
    },
    {
        "CITY": "Alvear",
        "STATE": "Corrientes",
        "COUNTRY": "Argentina",
        "LATITUDE": -31.93,
        "LONGITUDE": -60.67
    },
    {
        "CITY": "Ama",
        "STATE": "Louisiana",
        "COUNTRY": "U.S.A.",
        "LATITUDE": 29.95,
        "LONGITUDE": -90.31
    },
    {
        "CITY": "Amagasaki",
        "STATE": "Hyogo",
        "COUNTRY": "Japan",
        "LATITUDE": 34.69,
        "LONGITUDE": 135.38
    },
    {
        "CITY": "Amamapare",
        "STATE": "Papua",
        "COUNTRY": "Indonesia",
        "LATITUDE": -4.83,
        "LONGITUDE": 136.85
    },
    {
        "CITY": "Ambarlı",
        "STATE": "Istanbul",
        "COUNTRY": "Turkey",
        "LATITUDE": 40.97,
        "LONGITUDE": 28.7
    },
    {
        "CITY": "Ambès",
        "STATE": "Nouvelle-Aquitaine",
        "COUNTRY": "France",
        "LATITUDE": 45.04,
        "LONGITUDE": -0.6
    },
    {
        "CITY": "Ambon",
        "STATE": "Maluku",
        "COUNTRY": "Indonesia",
        "LATITUDE": -3.69,
        "LONGITUDE": 128.16
    },
    {
        "CITY": "Amchit",
        "STATE": "Jbeil",
        "COUNTRY": "Lebanon",
        "LATITUDE": 34.15,
        "LONGITUDE": 35.63
    },
    {
        "CITY": "Amchitka",
        "STATE": "Alaska",
        "COUNTRY": "U.S.A.",
        "LATITUDE": 51.44,
        "LONGITUDE": -179.72
    },
    {
        "CITY": "American Cyanamid Co",
        "STATE": "Mississippi",
        "COUNTRY": "U.S.A.",
        "LATITUDE": 29.97,
        "LONGITUDE": -90.27
    },
    {
        "CITY": "Mississippi",
        "STATE": "Mississippi",
        "COUNTRY": "U.S.A.",
        "LATITUDE": 29.92,
        "LONGITUDE": -90.2
    },
    {
        "CITY": "Amesville",
        "STATE": "Ohio",
        "COUNTRY": "U.S.A.",
        "LATITUDE": 29.91,
        "LONGITUDE": -90.11
    },
    {
        "CITY": "Xiamen",
        "STATE": "Fujian",
        "COUNTRY": "China",
        "LATITUDE": 24.45,
        "LONGITUDE": 118.07
    },
    {
        "CITY": "Amsterdam",
        "STATE": "Noord-Holland",
        "COUNTRY": "Netherlands",
        "LATITUDE": 52.4,
        "LONGITUDE": 4.88
    },
    {
        "CITY": "Punto Fijo",
        "STATE": "Falcón",
        "COUNTRY": "Venezuela",
        "LATITUDE": 11.74,
        "LONGITUDE": -70.23
    },
    {
        "CITY": "Amukta",
        "STATE": "Alaska",
        "COUNTRY": "U.S.A.",
        "LATITUDE": 52.39,
        "LONGITUDE": -171.82
    },
    {
        "CITY": "Anacortes",
        "STATE": "Washington",
        "COUNTRY": "U.S.A.",
        "LATITUDE": 48.51,
        "LONGITUDE": -122.57
    },
    {
        "CITY": "Anchorage",
        "STATE": "Alaska",
        "COUNTRY": "U.S.A.",
        "LATITUDE": 61.22,
        "LONGITUDE": -149.95
    },
    {
        "CITY": "Ancón",
        "STATE": "Lima",
        "COUNTRY": "Peru",
        "LATITUDE": -11.77,
        "LONGITUDE": -77.18
    },
    {
        "CITY": "Ancona",
        "STATE": "Marche",
        "COUNTRY": "Italy",
        "LATITUDE": 43.62,
        "LONGITUDE": 13.5
    },
    {
        "CITY": "Andiport",
        "STATE": "Ecuador",
        "COUNTRY": "Ecuador",
        "LATITUDE": -2.28,
        "LONGITUDE": -79.91
    },
    {
        "CITY": "Andoany",
        "STATE": "Diana",
        "COUNTRY": "Madagascar",
        "LATITUDE": -13.41,
        "LONGITUDE": 48.28
    },
    {
        "CITY": "Anegasaki",
        "STATE": "Chiba",
        "COUNTRY": "Japan",
        "LATITUDE": 35.5,
        "LONGITUDE": 140.02
    },
    {
        "CITY": "Anewa Bay",
        "STATE": "Autonomous Region of Bougainville",
        "COUNTRY": "Papua New Guinea",
        "LATITUDE": -6.19,
        "LONGITUDE": 155.55
    },
    {
        "CITY": "Angelin Landing",
        "STATE": "Mississippi",
        "COUNTRY": "U.S.A.",
        "LATITUDE": 30.05,
        "LONGITUDE": -90.65
    },
    {
        "CITY": "Ango Ango",
        "STATE": "Tshuapa",
        "COUNTRY": "Congo",
        "LATITUDE": -5.86,
        "LONGITUDE": 13.43
    },
    {
        "CITY": "Angra do Heroísmo",
        "STATE": "Azores",
        "COUNTRY": "Azores",
        "LATITUDE": 38.65,
        "LONGITUDE": -27.21
    },
    {
        "CITY": "Angra Do Heroismo",
        "STATE": "Azores",
        "COUNTRY": "Azores",
        "LATITUDE": 38.65,
        "LONGITUDE": -27.21
    },
    {
        "CITY": "Angra dos Reis",
        "STATE": "Rio de Janeiro",
        "COUNTRY": "Brazil",
        "LATITUDE": -23.01,
        "LONGITUDE": -44.31
    },
    {
        "CITY": "Seria",
        "STATE": "Sarawak",
        "COUNTRY": "Malaysia",
        "LATITUDE": 5.09,
        "LONGITUDE": 104.69
    },
    {
        "CITY": "Anguilla",
        "STATE": "Anguilla",
        "COUNTRY": "Anguilla",
        "LATITUDE": 18.2,
        "LONGITUDE": -63.09
    },
    {
        "CITY": "Annaba",
        "STATE": "Annaba",
        "COUNTRY": "Algeria",
        "LATITUDE": 36.91,
        "LONGITUDE": 7.78
    },
    {
        "CITY": "Delta",
        "STATE": "British Columbia",
        "COUNTRY": "Canada",
        "LATITUDE": 49.19,
        "LONGITUDE": -122.91
    },
    {
        "CITY": "Jakarta",
        "STATE": "Java",
        "COUNTRY": "Indonesia",
        "LATITUDE": 5.19,
        "LONGITUDE": 105.61
    },
    {
        "CITY": "Antalya",
        "STATE": "Antalya",
        "COUNTRY": "Turkey",
        "LATITUDE": 36.85,
        "LONGITUDE": 30.65
    },
    {
        "CITY": "Kano",
        "STATE": "Kano State",
        "COUNTRY": "Nigeria",
        "LATITUDE": 4.15,
        "LONGITUDE": 8.33
    },
    {
        "CITY": "Antifer",
        "STATE": "Normandy",
        "COUNTRY": "France",
        "LATITUDE": 49.65,
        "LONGITUDE": 0.13
    },
    {
        "CITY": "Antilla",
        "STATE": "Holguín",
        "COUNTRY": "Cuba",
        "LATITUDE": 20.83,
        "LONGITUDE": -75.74
    },
    {
        "CITY": "Antofagasta",
        "STATE": "Antofagasta",
        "COUNTRY": "Chile",
        "LATITUDE": -23.64,
        "LONGITUDE": -70.42
    },
    {
        "CITY": "Antsiranana",
        "STATE": "Diana",
        "COUNTRY": "Madagascar",
        "LATITUDE": -12.27,
        "LONGITUDE": 49.28
    },
    {
        "CITY": "Antwerp",
        "STATE": "Flanders",
        "COUNTRY": "Belgium",
        "LATITUDE": 51.35,
        "LONGITUDE": 4.27
    },
    {
        "CITY": "Antwerp",
        "STATE": "Flanders",
        "COUNTRY": "Belgium",
        "LATITUDE": 51.29,
        "LONGITUDE": 4.26
    },
    {
        "CITY": "Antwerp",
        "STATE": "Flanders",
        "COUNTRY": "Belgium",
        "LATITUDE": 51.34,
        "LONGITUDE": 4.27
    },
    {
        "CITY": "Antwerp",
        "STATE": "Flanders",
        "COUNTRY": "Belgium",
        "LATITUDE": 51.35,
        "LONGITUDE": 4.26
    },
    {
        "CITY": "Antwerp",
        "STATE": "Flanders",
        "COUNTRY": "Belgium",
        "LATITUDE": 51.28,
        "LONGITUDE": 4.32
    },
    {
        "CITY": "Antwerp",
        "STATE": "Flanders",
        "COUNTRY": "Belgium",
        "LATITUDE": 51.28,
        "LONGITUDE": 4.23
    },
    {
        "CITY": "Anyer",
        "STATE": "Banten",
        "COUNTRY": "Indonesia",
        "LATITUDE": -6.06,
        "LONGITUDE": 105.88
    },
    {
        "CITY": "Ciwandan",
        "STATE": "Banten",
        "COUNTRY": "Indonesia",
        "LATITUDE": -6.02,
        "LONGITUDE": 105.95
    },
    {
        "CITY": "Ao Shan",
        "STATE": "Shandong",
        "COUNTRY": "China",
        "LATITUDE": 29.95,
        "LONGITUDE": 122.13
    },
    {
        "CITY": "Aogashima",
        "STATE": "Tokyo",
        "COUNTRY": "Japan",
        "LATITUDE": 32.98,
        "LONGITUDE": 129.03
    },
    {
        "CITY": "Aomori",
        "STATE": "Aomori",
        "COUNTRY": "Japan",
        "LATITUDE": 40.84,
        "LONGITUDE": 140.74
    },
    {
        "CITY": "Apapa",
        "STATE": "Lagos State",
        "COUNTRY": "Nigeria",
        "LATITUDE": 6.43,
        "LONGITUDE": 3.4
    },
    {
        "CITY": "Apia",
        "STATE": "Tuamasaga",
        "COUNTRY": "Samoa",
        "LATITUDE": -13.82,
        "LONGITUDE": -171.76
    },
    {
        "CITY": "Apra",
        "STATE": "Guam",
        "COUNTRY": "Guam",
        "LATITUDE": 13.46,
        "LONGITUDE": 144.66
    },
    {
        "CITY": "Aqaba",
        "STATE": "Aqaba Governorate",
        "COUNTRY": "Jordan",
        "LATITUDE": 29.51,
        "LONGITUDE": 34.99
    },
    {
        "CITY": "Aqaba",
        "STATE": "Aqaba Governorate",
        "COUNTRY": "Jordan",
        "LATITUDE": 29.47,
        "LONGITUDE": 34.97
    },
    {
        "CITY": "Aqaba",
        "STATE": "Aqaba Governorate",
        "COUNTRY": "Jordan",
        "LATITUDE": 29.37,
        "LONGITUDE": 34.96
    },
    {
        "CITY": "Aquila Terminal",
        "STATE": "Abruzzo",
        "COUNTRY": "Italy",
        "LATITUDE": 40.91,
        "LONGITUDE": 18.34
    },
    {
        "CITY": "Alphen aan den Rijn",
        "STATE": "South Holland",
        "COUNTRY": "Netherlands",
        "LATITUDE": 51.9,
        "LONGITUDE": 4.43
    },
    {
        "CITY": "Aracaju",
        "STATE": "Sergipe",
        "COUNTRY": "Brazil",
        "LATITUDE": -11.13,
        "LONGITUDE": -36.94
    },
    {
        "CITY": "Aratu",
        "STATE": "Bahia",
        "COUNTRY": "Brazil",
        "LATITUDE": -12.78,
        "LONGITUDE": -38.5
    },
    {
        "CITY": "Arkhangelsk",
        "STATE": "Arkhangelsk Oblast",
        "COUNTRY": "Russia",
        "LATITUDE": 64.53,
        "LONGITUDE": 40.53
    },
    {
        "CITY": "Ardjuna",
        "STATE": "East Java",
        "COUNTRY": "Indonesia",
        "LATITUDE": -5.84,
        "LONGITUDE": 107.78
    },
    {
        "CITY": "Ardmore",
        "STATE": "Scotland",
        "COUNTRY": "U.K.",
        "LATITUDE": 56.17,
        "LONGITUDE": 2.73
    },
    {
        "CITY": "Ardrossan",
        "STATE": "South Australia",
        "COUNTRY": "Australia",
        "LATITUDE": -34.44,
        "LONGITUDE": 137.93
    },
    {
        "CITY": "Arendal",
        "STATE": "Agder",
        "COUNTRY": "Norway",
        "LATITUDE": 58.46,
        "LONGITUDE": 8.77
    },
    {
        "CITY": "Arica",
        "STATE": "Arica y Parinacota",
        "COUNTRY": "Chile",
        "LATITUDE": -18.46,
        "LONGITUDE": -70.32
    },
    {
        "CITY": "Arrecife",
        "STATE": "Las Palmas",
        "COUNTRY": "Spain",
        "LATITUDE": 28.97,
        "LONGITUDE": -13.53
    },
    {
        "CITY": "Arthur Kill",
        "STATE": "New York",
        "COUNTRY": "U.S.A.",
        "LATITUDE": 40.56,
        "LONGITUDE": -74.24
    },
    {
        "CITY": "Oranjestad",
        "STATE": "Aruba",
        "COUNTRY": "Aruba",
        "LATITUDE": 12.52,
        "LONGITUDE": -70.04
    },
    {
        "CITY": "Lhokseumawe",
        "STATE": "Aceh",
        "COUNTRY": "Indonesia",
        "LATITUDE": 5.22,
        "LONGITUDE": 97.08
    },
    {
        "CITY": "Arutanga",
        "STATE": "Aitutaki",
        "COUNTRY": "Cook Is.",
        "LATITUDE": -21.2,
        "LONGITUDE": -159.78
    },
    {
        "CITY": "Arutunga",
        "STATE": "Cook Islands",
        "COUNTRY": "Cook Is.",
        "LATITUDE": -18.82,
        "LONGITUDE": -159.78
    },
    {
        "CITY": "Arzew",
        "STATE": "Oran",
        "COUNTRY": "Algeria",
        "LATITUDE": 35.85,
        "LONGITUDE": -0.29
    },
    {
        "CITY": "Arzew",
        "STATE": "Oran",
        "COUNTRY": "Algeria",
        "LATITUDE": 35.82,
        "LONGITUDE": -0.25
    },
    {
        "CITY": "Ascension Island",
        "STATE": "Ascension",
        "COUNTRY": "Ascension",
        "LATITUDE": -7.89,
        "LONGITUDE": -14.39
    },
    {
        "CITY": "Aseng",
        "STATE": "Wele-Nzas",
        "COUNTRY": "Equatorial Guinea",
        "LATITUDE": 3.37,
        "LONGITUDE": 9.14
    },
    {
        "CITY": "Ash Shihr",
        "STATE": "Hadhramaut",
        "COUNTRY": "Yemen",
        "LATITUDE": 14.67,
        "LONGITUDE": 49.52
    },
    {
        "CITY": "Ashdod",
        "STATE": "Southern District",
        "COUNTRY": "Israel",
        "LATITUDE": 31.86,
        "LONGITUDE": 34.64
    },
    {
        "CITY": "Ashdod",
        "STATE": "Southern District",
        "COUNTRY": "Israel",
        "LATITUDE": 31.83,
        "LONGITUDE": 34.64
    },
    {
        "CITY": "Ashkelon",
        "STATE": "South District",
        "COUNTRY": "Israel",
        "LATITUDE": 31.66,
        "LONGITUDE": 34.51
    },
    {
        "CITY": "Ashtabula",
        "STATE": "Ohio",
        "COUNTRY": "U.S.A.",
        "LATITUDE": 41.92,
        "LONGITUDE": -80.81
    },
    {
        "CITY": "Ashtart",
        "STATE": "Tunisia",
        "COUNTRY": "Tunisia",
        "LATITUDE": 34.22,
        "LONGITUDE": 11.39
    },
    {
        "CITY": "Buru Passage",
        "STATE": "Maluku",
        "COUNTRY": "Indonesia",
        "LATITUDE": -3.11,
        "LONGITUDE": 127.25
    },
    {
        "CITY": "Gorong",
        "STATE": "Maluku",
        "COUNTRY": "Indonesia",
        "LATITUDE": -4.0,
        "LONGITUDE": 131.87
    },
    {
        "CITY": "Mandalika",
        "STATE": "West Nusa Tenggara",
        "COUNTRY": "Indonesia",
        "LATITUDE": -6.08,
        "LONGITUDE": 111.0
    },
    {
        "CITY": "Molu Passage",
        "STATE": "Indonesia",
        "COUNTRY": "Indonesia",
        "LATITUDE": -6.58,
        "LONGITUDE": 132.35
    },
    {
        "CITY": "Pasir Layaran",
        "STATE": "West Java",
        "COUNTRY": "Indonesia",
        "LATITUDE": -7.62,
        "LONGITUDE": 122.31
    },
    {
        "CITY": "Bawean",
        "STATE": "East Java",
        "COUNTRY": "Indonesia",
        "LATITUDE": -5.51,
        "LONGITUDE": 112.0
    },
    {
        "CITY": "Romang",
        "STATE": "Maluku",
        "COUNTRY": "Indonesia",
        "LATITUDE": -7.63,
        "LONGITUDE": 127.17
    },
    {
        "CITY": "Selat Gelasa",
        "STATE": "Indonesia",
        "COUNTRY": "Indonesia",
        "LATITUDE": -2.0,
        "LONGITUDE": 107.27
    },
    {
        "CITY": "Selat Ombai",
        "STATE": "Nusa Tenggara Timor",
        "COUNTRY": "Indonesia",
        "LATITUDE": -8.25,
        "LONGITUDE": 125.32
    },
    {
        "CITY": "Asnæs",
        "STATE": "Region Zealand",
        "COUNTRY": "Denmark",
        "LATITUDE": 55.67,
        "LONGITUDE": 11.09
    },
    {
        "CITY": "Aspra Spitia",
        "STATE": "Viotia",
        "COUNTRY": "Greece",
        "LATITUDE": 38.37,
        "LONGITUDE": 22.66
    },
    {
        "CITY": "Aspropyrgos",
        "STATE": "Attica",
        "COUNTRY": "Greece",
        "LATITUDE": 38.02,
        "LONGITUDE": 23.59
    },
    {
        "CITY": "Assab",
        "STATE": "Debubawi Keyih Bahri",
        "COUNTRY": "Eritrea",
        "LATITUDE": 13.0,
        "LONGITUDE": 42.75
    },
    {
        "CITY": "Assaluyeh",
        "STATE": "Bushehr",
        "COUNTRY": "Iran",
        "LATITUDE": 27.52,
        "LONGITUDE": 52.51
    },
    {
        "CITY": "Assemini",
        "STATE": "Sardinia",
        "COUNTRY": "Italy",
        "LATITUDE": 39.19,
        "LONGITUDE": 9.1
    },
    {
        "CITY": "Assens",
        "STATE": "Region of Southern Denmark",
        "COUNTRY": "Denmark",
        "LATITUDE": 55.27,
        "LONGITUDE": 9.89
    },
    {
        "CITY": "Atherinolakkos",
        "STATE": "Crete",
        "COUNTRY": "Greece",
        "LATITUDE": 35.35,
        "LONGITUDE": 25.05
    },
    {
        "CITY": "Atreco",
        "STATE": "MT",
        "COUNTRY": "U.S.A.",
        "LATITUDE": 30.08,
        "LONGITUDE": -94.08
    },
    {
        "CITY": "Atsumi",
        "STATE": "Yamagata",
        "COUNTRY": "Japan",
        "LATITUDE": 34.67,
        "LONGITUDE": 137.08
    },
    {
        "CITY": "Attu Station",
        "STATE": "Alaska",
        "COUNTRY": "U.S.A.",
        "LATITUDE": 53.16,
        "LONGITUDE": 172.59
    },
    {
        "CITY": "Auckland",
        "STATE": "Auckland",
        "COUNTRY": "New Zealand",
        "LATITUDE": -36.84,
        "LONGITUDE": 174.77
    },
    {
        "CITY": "Aughinish Island",
        "STATE": "County Limerick",
        "COUNTRY": "Ireland",
        "LATITUDE": 52.65,
        "LONGITUDE": -9.06
    },
    {
        "CITY": "Augusta",
        "STATE": "Sicily",
        "COUNTRY": "Italy",
        "LATITUDE": 37.2,
        "LONGITUDE": 15.22
    },
    {
        "CITY": "Aultbea",
        "STATE": "Scotland",
        "COUNTRY": "U.K.",
        "LATITUDE": 57.83,
        "LONGITUDE": -5.59
    },
    {
        "CITY": "Austevoll",
        "STATE": "Vestland",
        "COUNTRY": "Norway",
        "LATITUDE": 60.1,
        "LONGITUDE": 5.25
    },
    {
        "CITY": "Avatiu",
        "STATE": "Rarotonga",
        "COUNTRY": "Cook Is.",
        "LATITUDE": -21.2,
        "LONGITUDE": -159.78
    },
    {
        "CITY": "Aveiro",
        "STATE": "Aveiro",
        "COUNTRY": "Portugal",
        "LATITUDE": 40.66,
        "LONGITUDE": -8.71
    },
    {
        "CITY": "Avernakke",
        "STATE": "Region of Southern Denmark",
        "COUNTRY": "Denmark",
        "LATITUDE": 55.31,
        "LONGITUDE": 10.79
    },
    {
        "CITY": "Aviles",
        "STATE": "Asturias",
        "COUNTRY": "Spain",
        "LATITUDE": 43.56,
        "LONGITUDE": -5.92
    },
    {
        "CITY": "Avon",
        "STATE": "Indiana",
        "COUNTRY": "U.S.A.",
        "LATITUDE": 38.05,
        "LONGITUDE": -122.16
    },
    {
        "CITY": "Martinez",
        "STATE": "California",
        "COUNTRY": "U.S.A.",
        "LATITUDE": 38.05,
        "LONGITUDE": -122.09
    },
    {
        "CITY": "Avondale",
        "STATE": "Arizona",
        "COUNTRY": "U.S.A.",
        "LATITUDE": 29.93,
        "LONGITUDE": -90.19
    },
    {
        "CITY": "Avondale",
        "STATE": "Mississippi",
        "COUNTRY": "U.S.A.",
        "LATITUDE": 29.93,
        "LONGITUDE": -90.14
    },
    {
        "CITY": "Avondale",
        "STATE": "Mississippi",
        "COUNTRY": "U.S.A.",
        "LATITUDE": 29.93,
        "LONGITUDE": -90.18
    },
    {
        "CITY": "Avonmouth",
        "STATE": "England",
        "COUNTRY": "U.K.",
        "LATITUDE": 51.51,
        "LONGITUDE": -2.72
    },
    {
        "CITY": "Axel",
        "STATE": "Zeeland",
        "COUNTRY": "Netherlands",
        "LATITUDE": 51.34,
        "LONGITUDE": 3.81
    },
    {
        "CITY": "Axelsvik",
        "STATE": "Stockholm County",
        "COUNTRY": "Sweden",
        "LATITUDE": 65.77,
        "LONGITUDE": 23.38
    },
    {
        "CITY": "Selaata",
        "STATE": "North Governorate",
        "COUNTRY": "Lebanon",
        "LATITUDE": 36.85,
        "LONGITUDE": 36.13
    },
    {
        "CITY": "Mariupol",
        "STATE": "Donetsk Oblast",
        "COUNTRY": "Ukraine",
        "LATITUDE": 47.08,
        "LONGITUDE": 37.58
    },
    {
        "CITY": "Pointe-Noire",
        "STATE": "Kouilou",
        "COUNTRY": "Congo",
        "LATITUDE": -5.63,
        "LONGITUDE": 10.98
    },
    {
        "CITY": "Az Zawiyah",
        "STATE": "Jafara.",
        "COUNTRY": "Libya",
        "LATITUDE": 32.81,
        "LONGITUDE": 12.69
    },
    {
        "CITY": "Hanoi",
        "STATE": "Hanoi",
        "COUNTRY": "Vietnam",
        "LATITUDE": 9.8,
        "LONGITUDE": 107.99
    },
    {
        "CITY": "Babatngon",
        "STATE": "Leyte",
        "COUNTRY": "Philippines",
        "LATITUDE": 11.41,
        "LONGITUDE": 124.76
    },
    {
        "CITY": "Vung Tau",
        "STATE": "Ba Ria-Vung Tau",
        "COUNTRY": "Vietnam",
        "LATITUDE": 9.8,
        "LONGITUDE": 107.99
    },
    {
        "CITY": "Bachaquero",
        "STATE": "Zulia",
        "COUNTRY": "Venezuela",
        "LATITUDE": 9.94,
        "LONGITUDE": -71.16
    },
    {
        "CITY": "Bacolod",
        "STATE": "Negros Occidental",
        "COUNTRY": "Philippines",
        "LATITUDE": 10.69,
        "LONGITUDE": 122.93
    },
    {
        "CITY": "Bacong",
        "STATE": "Negros Oriental",
        "COUNTRY": "Philippines",
        "LATITUDE": 9.23,
        "LONGITUDE": 123.3
    },
    {
        "CITY": "Bontang",
        "STATE": "East Kalimantan",
        "COUNTRY": "Indonesia",
        "LATITUDE": 0.1,
        "LONGITUDE": 117.48
    },
    {
        "CITY": "Bådo",
        "STATE": "Västra Götaland",
        "COUNTRY": "Sweden",
        "LATITUDE": 58.34,
        "LONGITUDE": 11.9
    },
    {
        "CITY": "Bandırma",
        "STATE": "Balıkesir",
        "COUNTRY": "Turkey",
        "LATITUDE": 40.38,
        "LONGITUDE": 27.91
    },
    {
        "CITY": "Baglan",
        "STATE": "Wales",
        "COUNTRY": "U.K.",
        "LATITUDE": 51.62,
        "LONGITUDE": -3.84
    },
    {
        "CITY": "Bahía Blanca",
        "STATE": "Buenos Aires",
        "COUNTRY": "Argentina",
        "LATITUDE": -38.79,
        "LONGITUDE": -62.27
    },
    {
        "CITY": "Bahía Blanca",
        "STATE": "Buenos Aires",
        "COUNTRY": "Argentina",
        "LATITUDE": -38.79,
        "LONGITUDE": -62.29
    },
    {
        "CITY": "Bahia Felix",
        "STATE": "Magallanes and Chilean Antarctica",
        "COUNTRY": "Chile",
        "LATITUDE": -52.92,
        "LONGITUDE": -74.05
    },
    {
        "CITY": "Bahía Las Minas",
        "STATE": "Colón",
        "COUNTRY": "Panama",
        "LATITUDE": 9.4,
        "LONGITUDE": -79.82
    },
    {
        "CITY": "Bahía Posesión",
        "STATE": "Magallanes y de la Antártica Chilena",
        "COUNTRY": "Chile",
        "LATITUDE": -52.37,
        "LONGITUDE": -69.03
    },
    {
        "CITY": "Manama",
        "STATE": "Bahrain",
        "COUNTRY": "Bahrain",
        "LATITUDE": 26.17,
        "LONGITUDE": 50.68
    },
    {
        "CITY": "Bahregan",
        "STATE": "Bushehr",
        "COUNTRY": "Iran",
        "LATITUDE": 29.72,
        "LONGITUDE": 50.17
    },
    {
        "CITY": "Baie-Comeau",
        "STATE": "Quebec",
        "COUNTRY": "Canada",
        "LATITUDE": 49.26,
        "LONGITUDE": -68.13
    },
    {
        "CITY": "Dumbéa",
        "STATE": "South Province",
        "COUNTRY": "New Caledonia",
        "LATITUDE": -22.26,
        "LONGITUDE": 166.43
    },
    {
        "CITY": "Baie-Comeau",
        "STATE": "Quebec",
        "COUNTRY": "Canada",
        "LATITUDE": 49.23,
        "LONGITUDE": -68.13
    },
    {
        "CITY": "Baitkal",
        "STATE": "Karnataka",
        "COUNTRY": "India",
        "LATITUDE": 14.81,
        "LONGITUDE": 74.12
    },
    {
        "CITY": "Bajo Grande",
        "STATE": "Zulia",
        "COUNTRY": "Venezuela",
        "LATITUDE": 10.51,
        "LONGITUDE": -71.6
    },
    {
        "CITY": "Bakar",
        "STATE": "Primorje-Gorski Kotar",
        "COUNTRY": "Croatia",
        "LATITUDE": 45.3,
        "LONGITUDE": 14.55
    },
    {
        "CITY": "Bakarista",
        "STATE": "Russia",
        "COUNTRY": "Russia",
        "LATITUDE": 64.53,
        "LONGITUDE": 40.53
    },
    {
        "CITY": "Balhaf",
        "STATE": "Shabwah",
        "COUNTRY": "Yemen",
        "LATITUDE": 13.96,
        "LONGITUDE": 48.17
    },
    {
        "CITY": "Balabac",
        "STATE": "Palawan",
        "COUNTRY": "Philippines",
        "LATITUDE": 7.96,
        "LONGITUDE": 117.22
    },
    {
        "CITY": "Balao",
        "STATE": "Guayas",
        "COUNTRY": "Ecuador",
        "LATITUDE": 1.05,
        "LONGITUDE": -79.72
    },
    {
        "CITY": "Balboa",
        "STATE": "Panamá",
        "COUNTRY": "Panama",
        "LATITUDE": 8.95,
        "LONGITUDE": -79.57
    },
    {
        "CITY": "Balboa",
        "STATE": "Panama",
        "COUNTRY": "Panama",
        "LATITUDE": 8.97,
        "LONGITUDE": -79.57
    },
    {
        "CITY": "Balchik",
        "STATE": "Dobrich",
        "COUNTRY": "Bulgaria",
        "LATITUDE": 43.38,
        "LONGITUDE": 28.18
    },
    {
        "CITY": "Balikpapan",
        "STATE": "East Kalimantan",
        "COUNTRY": "Indonesia",
        "LATITUDE": -1.26,
        "LONGITUDE": 116.81
    },
    {
        "CITY": "Balikpapan",
        "STATE": "East Kalimantan",
        "COUNTRY": "Indonesia",
        "LATITUDE": -1.2,
        "LONGITUDE": 116.78
    },
    {
        "CITY": "Balintang Channel",
        "STATE": "Ilocos Region",
        "COUNTRY": "Philippines",
        "LATITUDE": 19.88,
        "LONGITUDE": 121.87
    },
    {
        "CITY": "Sydney",
        "STATE": "New South Wales",
        "COUNTRY": "Australia",
        "LATITUDE": -33.85,
        "LONGITUDE": 151.21
    },
    {
        "CITY": "Ballylumford",
        "STATE": "Northern Ireland",
        "COUNTRY": "U.K.",
        "LATITUDE": 54.84,
        "LONGITUDE": -5.79
    },
    {
        "CITY": "Balmain",
        "STATE": "New South Wales",
        "COUNTRY": "Australia",
        "LATITUDE": -33.85,
        "LONGITUDE": 151.21
    },
    {
        "CITY": "Indramayu",
        "STATE": "West Java",
        "COUNTRY": "Indonesia",
        "LATITUDE": -6.23,
        "LONGITUDE": 108.46
    },
    {
        "CITY": "Baltimore",
        "STATE": "Maryland",
        "COUNTRY": "U.S.A.",
        "LATITUDE": 39.27,
        "LONGITUDE": -76.57
    },
    {
        "CITY": "Baltimore",
        "STATE": "Maryland",
        "COUNTRY": "U.S.A.",
        "LATITUDE": 39.22,
        "LONGITUDE": -76.57
    },
    {
        "CITY": "Baltimore",
        "STATE": "Maryland",
        "COUNTRY": "U.S.A.",
        "LATITUDE": 39.24,
        "LONGITUDE": -76.54
    },
    {
        "CITY": "Baltimore",
        "STATE": "Maryland",
        "COUNTRY": "U.S.A.",
        "LATITUDE": 39.26,
        "LONGITUDE": -76.57
    },
    {
        "CITY": "Baltimore",
        "STATE": "Maryland",
        "COUNTRY": "U.S.A.",
        "LATITUDE": 39.28,
        "LONGITUDE": -76.59
    },
    {
        "CITY": "Baltimore",
        "STATE": "Maryland",
        "COUNTRY": "U.S.A.",
        "LATITUDE": 39.27,
        "LONGITUDE": -76.58
    },
    {
        "CITY": "Baltimore",
        "STATE": "Maryland",
        "COUNTRY": "U.S.A.",
        "LATITUDE": 39.26,
        "LONGITUDE": -76.6
    },
    {
        "CITY": "Baltimore",
        "STATE": "Maryland",
        "COUNTRY": "U.S.A.",
        "LATITUDE": 39.26,
        "LONGITUDE": -76.55
    },
    {
        "CITY": "Baltimore",
        "STATE": "Maryland",
        "COUNTRY": "U.S.A.",
        "LATITUDE": 39.21,
        "LONGITUDE": -76.48
    },
    {
        "CITY": "Baltimore",
        "STATE": "Maryland",
        "COUNTRY": "U.S.A.",
        "LATITUDE": 39.22,
        "LONGITUDE": -76.5
    },
    {
        "CITY": "Baltiysk",
        "STATE": "Kaliningrad Oblast",
        "COUNTRY": "Russia",
        "LATITUDE": 54.63,
        "LONGITUDE": 19.92
    },
    {
        "CITY": "Banago",
        "STATE": "Negros Occidental",
        "COUNTRY": "Philippines",
        "LATITUDE": 10.69,
        "LONGITUDE": 122.93
    },
    {
        "CITY": "Banana",
        "STATE": "Kongo Central",
        "COUNTRY": "Congo, D.R.",
        "LATITUDE": -6.04,
        "LONGITUDE": 12.4
    },
    {
        "CITY": "Banco Bay",
        "STATE": "Lagunes Region",
        "COUNTRY": "Ivory Coast",
        "LATITUDE": 5.27,
        "LONGITUDE": -4.02
    },
    {
        "CITY": "Bandar Abbas",
        "STATE": "Hormozgan",
        "COUNTRY": "Iran",
        "LATITUDE": 27.14,
        "LONGITUDE": 56.2
    },
    {
        "CITY": "Bandar Asaluyeh",
        "STATE": "Bushehr",
        "COUNTRY": "Iran",
        "LATITUDE": 27.52,
        "LONGITUDE": 52.51
    },
    {
        "CITY": "Bandar Abbas",
        "STATE": "Hormozgan",
        "COUNTRY": "Iran",
        "LATITUDE": 27.09,
        "LONGITUDE": 56.07
    },
    {
        "CITY": "Bandar Imam Khomeini",
        "STATE": "Khuzestan",
        "COUNTRY": "Iran",
        "LATITUDE": 30.42,
        "LONGITUDE": 49.09
    },
    {
        "CITY": "Bandar Mahshahr",
        "STATE": "Khuzestan",
        "COUNTRY": "Iran",
        "LATITUDE": 30.46,
        "LONGITUDE": 49.18
    },
    {
        "CITY": "Bandar Shahid Bahonar",
        "STATE": "Hormozgan",
        "COUNTRY": "Iran",
        "LATITUDE": 27.14,
        "LONGITUDE": 56.2
    },
    {
        "CITY": "Bandar Shahid Rajaee",
        "STATE": "Hormozgan",
        "COUNTRY": "Iran",
        "LATITUDE": 27.14,
        "LONGITUDE": 56.2
    },
    {
        "CITY": "Bandar Taheri",
        "STATE": "Bushehr",
        "COUNTRY": "Iran",
        "LATITUDE": 27.63,
        "LONGITUDE": 52.35
    },
    {
        "CITY": "Bandirma",
        "STATE": "Balikesir",
        "COUNTRY": "Turkey",
        "LATITUDE": 40.35,
        "LONGITUDE": 27.96
    },
    {
        "CITY": "Bang Hua Sua",
        "STATE": "Chon Buri",
        "COUNTRY": "Thailand",
        "LATITUDE": 13.68,
        "LONGITUDE": 100.52
    },
    {
        "CITY": "Pangkal Pinang",
        "STATE": "Bangka Belitung Islands",
        "COUNTRY": "Indonesia",
        "LATITUDE": -1.8,
        "LONGITUDE": 105.14
    },
    {
        "CITY": "Bangka",
        "STATE": "Bangka Belitung Islands",
        "COUNTRY": "Indonesia",
        "LATITUDE": 1.95,
        "LONGITUDE": 125.21
    },
    {
        "CITY": "Bangkok",
        "STATE": "Bangkok Province",
        "COUNTRY": "Thailand",
        "LATITUDE": 13.68,
        "LONGITUDE": 100.52
    },
    {
        "CITY": "Banias",
        "STATE": "Tartus",
        "COUNTRY": "Syria",
        "LATITUDE": 35.23,
        "LONGITUDE": 35.92
    },
    {
        "CITY": "Banjarmasin",
        "STATE": "South Kalimantan",
        "COUNTRY": "Indonesia",
        "LATITUDE": -3.33,
        "LONGITUDE": 114.56
    },
    {
        "CITY": "Banjarmasin",
        "STATE": "South Kalimantan",
        "COUNTRY": "Indonesia",
        "LATITUDE": -3.67,
        "LONGITUDE": 114.43
    },
    {
        "CITY": "Banjul",
        "STATE": "Banjul",
        "COUNTRY": "Gambia",
        "LATITUDE": 13.44,
        "LONGITUDE": -16.57
    },
    {
        "CITY": "Banten",
        "STATE": "Banten",
        "COUNTRY": "Indonesia",
        "LATITUDE": -6.0,
        "LONGITUDE": 105.97
    },
    {
        "CITY": "Bantry",
        "STATE": "County Cork",
        "COUNTRY": "Ireland",
        "LATITUDE": 51.7,
        "LONGITUDE": -9.54
    },
    {
        "CITY": "San Pedro",
        "STATE": "Côte d'Ivoire",
        "COUNTRY": "Ivory Coast",
        "LATITUDE": 4.94,
        "LONGITUDE": -4.53
    },
    {
        "CITY": "San Pedro",
        "STATE": "Bas-Sassandra",
        "COUNTRY": "Ivory Coast",
        "LATITUDE": 4.94,
        "LONGITUDE": -4.53
    },
    {
        "CITY": "Baoshan",
        "STATE": "Yunnan",
        "COUNTRY": "China",
        "LATITUDE": 31.37,
        "LONGITUDE": 121.5
    },
    {
        "CITY": "Bar",
        "STATE": "Montenegro",
        "COUNTRY": "Montenegro",
        "LATITUDE": 42.1,
        "LONGITUDE": 19.08
    },
    {
        "CITY": "Bridgetown",
        "STATE": "Saint Michael",
        "COUNTRY": "Barbados",
        "LATITUDE": 13.1,
        "LONGITUDE": -59.63
    },
    {
        "CITY": "Bridgetown",
        "STATE": "Saint Michael",
        "COUNTRY": "Barbados",
        "LATITUDE": 13.11,
        "LONGITUDE": -59.63
    },
    {
        "CITY": "Kapolei",
        "STATE": "Hawaii",
        "COUNTRY": "U.S.A.",
        "LATITUDE": 21.27,
        "LONGITUDE": -158.09
    },
    {
        "CITY": "La Porte",
        "STATE": "Texas",
        "COUNTRY": "U.S.A.",
        "LATITUDE": 29.75,
        "LONGITUDE": -95.29
    },
    {
        "CITY": "La Porte",
        "STATE": "Texas",
        "COUNTRY": "U.S.A.",
        "LATITUDE": 29.68,
        "LONGITUDE": -95.01
    },
    {
        "CITY": "Barcadera",
        "STATE": "Aruba",
        "COUNTRY": "Aruba",
        "LATITUDE": 12.48,
        "LONGITUDE": -70.0
    },
    {
        "CITY": "Barcarena",
        "STATE": "Pará",
        "COUNTRY": "Brazil",
        "LATITUDE": -1.54,
        "LONGITUDE": -48.77
    },
    {
        "CITY": "Barcelona",
        "STATE": "Catalonia",
        "COUNTRY": "Spain",
        "LATITUDE": 41.34,
        "LONGITUDE": 2.16
    },
    {
        "CITY": "Barcelona",
        "STATE": "Spain",
        "COUNTRY": "Spain",
        "LATITUDE": 41.35,
        "LONGITUDE": 2.17
    },
    {
        "CITY": "Bari",
        "STATE": "Apulia",
        "COUNTRY": "Italy",
        "LATITUDE": 41.14,
        "LONGITUDE": 16.86
    },
    {
        "CITY": "Vung Tau",
        "STATE": "Ba Ria-Vung Tau",
        "COUNTRY": "Vietnam",
        "LATITUDE": 10.59,
        "LONGITUDE": 107.03
    },
    {
        "CITY": "Barkan",
        "STATE": "Mazandaran",
        "COUNTRY": "Iran",
        "LATITUDE": 29.72,
        "LONGITUDE": 50.17
    },
    {
        "CITY": "Barking",
        "STATE": "England",
        "COUNTRY": "U.K.",
        "LATITUDE": 51.51,
        "LONGITUDE": 0.12
    },
    {
        "CITY": "Rio de Janeiro",
        "STATE": "Rio de Janeiro",
        "COUNTRY": "Brazil",
        "LATITUDE": -23.97,
        "LONGITUDE": -46.3
    },
    {
        "CITY": "Gladstone",
        "STATE": "Queensland",
        "COUNTRY": "Australia",
        "LATITUDE": -23.82,
        "LONGITUDE": 151.24
    },
    {
        "CITY": "Barquito",
        "STATE": "Atacama",
        "COUNTRY": "Chile",
        "LATITUDE": -26.35,
        "LONGITUDE": -70.65
    },
    {
        "CITY": "Barra",
        "STATE": "Scotland",
        "COUNTRY": "U.K.",
        "LATITUDE": 56.95,
        "LONGITUDE": -7.49
    },
    {
        "CITY": "Barra dos Coqueiros",
        "STATE": "Sergipe",
        "COUNTRY": "Brazil",
        "LATITUDE": -11.13,
        "LONGITUDE": -36.94
    },
    {
        "CITY": "Barranquilla",
        "STATE": "Atlántico",
        "COUNTRY": "Colombia",
        "LATITUDE": 10.97,
        "LONGITUDE": -74.76
    },
    {
        "CITY": "Grafton Passage",
        "STATE": "Queensland",
        "COUNTRY": "Australia",
        "LATITUDE": -16.64,
        "LONGITUDE": 146.23
    },
    {
        "CITY": "Great Barrier Reef",
        "STATE": "Queensland",
        "COUNTRY": "Australia",
        "LATITUDE": -19.97,
        "LONGITUDE": 150.28
    },
    {
        "CITY": "Great Barrier Reef",
        "STATE": "Queensland",
        "COUNTRY": "Australia",
        "LATITUDE": -18.21,
        "LONGITUDE": 147.12
    },
    {
        "CITY": "Barrow Island",
        "STATE": "Western Australia",
        "COUNTRY": "Australia",
        "LATITUDE": -20.81,
        "LONGITUDE": 115.57
    },
    {
        "CITY": "Barry",
        "STATE": "Wales",
        "COUNTRY": "U.K.",
        "LATITUDE": 51.39,
        "LONGITUDE": -3.26
    },
    {
        "CITY": "Bashayer",
        "STATE": "Red Sea State",
        "COUNTRY": "Sudan",
        "LATITUDE": 19.4,
        "LONGITUDE": 37.33
    },
    {
        "CITY": "Basrah",
        "STATE": "Basra",
        "COUNTRY": "Iraq",
        "LATITUDE": 29.68,
        "LONGITUDE": 48.81
    },
    {
        "CITY": "Basseterre",
        "STATE": "St. Kitts",
        "COUNTRY": "St. Kitts",
        "LATITUDE": 17.29,
        "LONGITUDE": -62.72
    },
    {
        "CITY": "Bastia",
        "STATE": "Corsica",
        "COUNTRY": "France",
        "LATITUDE": 42.7,
        "LONGITUDE": 9.45
    },
    {
        "CITY": "Basuo",
        "STATE": "Hainan",
        "COUNTRY": "China",
        "LATITUDE": 19.1,
        "LONGITUDE": 108.62
    },
    {
        "CITY": "Bata",
        "STATE": "Litoral",
        "COUNTRY": "Equatorial Guinea",
        "LATITUDE": 1.83,
        "LONGITUDE": 9.73
    },
    {
        "CITY": "Bataan",
        "STATE": "Central Luzon",
        "COUNTRY": "Philippines",
        "LATITUDE": 14.52,
        "LONGITUDE": 120.64
    },
    {
        "CITY": "Batangas City",
        "STATE": "Batangas",
        "COUNTRY": "Philippines",
        "LATITUDE": 13.72,
        "LONGITUDE": 121.05
    },
    {
        "CITY": "Banjul",
        "STATE": "Gambia",
        "COUNTRY": "Gambia",
        "LATITUDE": 13.44,
        "LONGITUDE": -16.57
    },
    {
        "CITY": "Baton Rouge",
        "STATE": "Louisiana",
        "COUNTRY": "U.S.A.",
        "LATITUDE": 30.47,
        "LONGITUDE": -91.2
    },
    {
        "CITY": "Baton Rouge",
        "STATE": "Louisiana",
        "COUNTRY": "U.S.A.",
        "LATITUDE": 30.44,
        "LONGITUDE": -91.2
    },
    {
        "CITY": "Batam",
        "STATE": "Riau Islands",
        "COUNTRY": "Indonesia",
        "LATITUDE": 1.17,
        "LONGITUDE": 104.0
    },
    {
        "CITY": "Batumi",
        "STATE": "Adjara.",
        "COUNTRY": "Georgia",
        "LATITUDE": 41.65,
        "LONGITUDE": 41.65
    },
    {
        "CITY": "Bayonne",
        "STATE": "New Jersey",
        "COUNTRY": "U.S.A.",
        "LATITUDE": 40.7,
        "LONGITUDE": -74.01
    },
    {
        "CITY": "Bayonne",
        "STATE": "Nouvelle-Aquitaine",
        "COUNTRY": "France",
        "LATITUDE": 43.49,
        "LONGITUDE": -1.47
    },
    {
        "CITY": "Bayonne",
        "STATE": "New Jersey",
        "COUNTRY": "U.S.A.",
        "LATITUDE": 40.65,
        "LONGITUDE": -74.08
    },
    {
        "CITY": "Pascagoula",
        "STATE": "Mississippi",
        "COUNTRY": "U.S.A.",
        "LATITUDE": 30.35,
        "LONGITUDE": -88.57
    },
    {
        "CITY": "Bayou Goula",
        "STATE": "Louisiana",
        "COUNTRY": "U.S.A.",
        "LATITUDE": 30.21,
        "LONGITUDE": -91.16
    },
    {
        "CITY": "Venice",
        "STATE": "Louisiana",
        "COUNTRY": "U.S.A.",
        "LATITUDE": 29.45,
        "LONGITUDE": -89.6
    },
    {
        "CITY": "Bayovar",
        "STATE": "Piura",
        "COUNTRY": "Peru",
        "LATITUDE": -5.8,
        "LONGITUDE": -81.05
    },
    {
        "CITY": "Bayport",
        "STATE": "New York",
        "COUNTRY": "U.S.A.",
        "LATITUDE": 29.75,
        "LONGITUDE": -95.29
    },
    {
        "CITY": "Bayport",
        "STATE": "Texas",
        "COUNTRY": "U.S.A.",
        "LATITUDE": 29.61,
        "LONGITUDE": -95.02
    },
    {
        "CITY": "Bayside",
        "STATE": "Nova Scotia",
        "COUNTRY": "Canada",
        "LATITUDE": 45.16,
        "LONGITUDE": -67.14
    },
    {
        "CITY": "Baytown",
        "STATE": "Texas",
        "COUNTRY": "U.S.A.",
        "LATITUDE": 29.73,
        "LONGITUDE": -95.02
    },
    {
        "CITY": "Iyo",
        "STATE": "Wele-Nzas",
        "COUNTRY": "Equatorial Guinea",
        "LATITUDE": 3.79,
        "LONGITUDE": 8.07
    },
    {
        "CITY": "Bayu Udan",
        "STATE": "Timor-Leste",
        "COUNTRY": "East Timor",
        "LATITUDE": -11.04,
        "LONGITUDE": 126.63
    },
    {
        "CITY": "Bayu Undan",
        "STATE": "Timor-Leste",
        "COUNTRY": "East Timor",
        "LATITUDE": -11.04,
        "LONGITUDE": 126.63
    },
    {
        "CITY": "Suai",
        "STATE": "Cova Lima",
        "COUNTRY": "East Timor",
        "LATITUDE": -11.04,
        "LONGITUDE": 126.63
    },
    {
        "CITY": "Bayuquan",
        "STATE": "Liaoning",
        "COUNTRY": "China",
        "LATITUDE": 40.28,
        "LONGITUDE": 122.09
    },
    {
        "CITY": "Bayway",
        "STATE": "New Jersey",
        "COUNTRY": "U.S.A.",
        "LATITUDE": 40.63,
        "LONGITUDE": -74.2
    },
    {
        "CITY": "Point Tupper",
        "STATE": "Nova Scotia",
        "COUNTRY": "Canada",
        "LATITUDE": 45.55,
        "LONGITUDE": -61.3
    },
    {
        "CITY": "Beaufort",
        "STATE": "North Carolina",
        "COUNTRY": "U.S.A.",
        "LATITUDE": 34.71,
        "LONGITUDE": -76.69
    },
    {
        "CITY": "Beaumont",
        "STATE": "Texas",
        "COUNTRY": "U.S.A.",
        "LATITUDE": 30.08,
        "LONGITUDE": -94.08
    },
    {
        "CITY": "Bec d'Ambès",
        "STATE": "Nouvelle-Aquitaine",
        "COUNTRY": "France",
        "LATITUDE": 45.04,
        "LONGITUDE": -0.6
    },
    {
        "CITY": "Beihai",
        "STATE": "Guangxi",
        "COUNTRY": "China",
        "LATITUDE": 21.48,
        "LONGITUDE": 109.06
    },
    {
        "CITY": "Ningbo",
        "STATE": "Zhejiang",
        "COUNTRY": "China",
        "LATITUDE": 29.93,
        "LONGITUDE": 121.88
    },
    {
        "CITY": "Ningbo",
        "STATE": "Zhejiang",
        "COUNTRY": "China",
        "LATITUDE": 29.94,
        "LONGITUDE": 121.86
    },
    {
        "CITY": "Beilun",
        "STATE": "Zhejiang",
        "COUNTRY": "China",
        "LATITUDE": 29.94,
        "LONGITUDE": 121.9
    },
    {
        "CITY": "Beira",
        "STATE": "Sofala",
        "COUNTRY": "Mozambique",
        "LATITUDE": -19.82,
        "LONGITUDE": 34.83
    },
    {
        "CITY": "Beirut",
        "STATE": "Beirut Governorate",
        "COUNTRY": "Lebanon",
        "LATITUDE": 33.91,
        "LONGITUDE": 35.54
    },
    {
        "CITY": "Bejaia",
        "STATE": "Bejaia",
        "COUNTRY": "Algeria",
        "LATITUDE": 36.76,
        "LONGITUDE": 5.1
    },
    {
        "CITY": "Paldiski",
        "STATE": "Harju County",
        "COUNTRY": "Estonia",
        "LATITUDE": 59.5,
        "LONGITUDE": 24.97
    },
    {
        "CITY": "Bela Vista",
        "STATE": "Maputo Province",
        "COUNTRY": "Mozambique",
        "LATITUDE": -25.98,
        "LONGITUDE": 32.57
    },
    {
        "CITY": "Bel Air",
        "STATE": "Maryland",
        "COUNTRY": "U.S.A.",
        "LATITUDE": 29.73,
        "LONGITUDE": -89.99
    },
    {
        "CITY": "Belanak Marine Terminal",
        "STATE": "Riau Islands",
        "COUNTRY": "Indonesia",
        "LATITUDE": 4.22,
        "LONGITUDE": 106.2
    },
    {
        "CITY": "Belawan",
        "STATE": "North Sumatra",
        "COUNTRY": "Indonesia",
        "LATITUDE": 3.79,
        "LONGITUDE": 98.7
    },
    {
        "CITY": "Belém",
        "STATE": "Pará",
        "COUNTRY": "Brazil",
        "LATITUDE": -1.44,
        "LONGITUDE": -48.53
    },
    {
        "CITY": "Belfast",
        "STATE": "Northern Ireland",
        "COUNTRY": "U.K.",
        "LATITUDE": 54.63,
        "LONGITUDE": -5.89
    },
    {
        "CITY": "Belida Terminal",
        "STATE": "South Sumatra",
        "COUNTRY": "Indonesia",
        "LATITUDE": 4.22,
        "LONGITUDE": 105.05
    },
    {
        "CITY": "Belize City",
        "STATE": "Belize",
        "COUNTRY": "Belize",
        "LATITUDE": 17.47,
        "LONGITUDE": -88.19
    },
    {
        "CITY": "Bell Bay",
        "STATE": "Tasmania",
        "COUNTRY": "Australia",
        "LATITUDE": -41.14,
        "LONGITUDE": 146.87
    },
    {
        "CITY": "Bella Vista",
        "STATE": "Buenos Aires Province",
        "COUNTRY": "Argentina",
        "LATITUDE": -32.69,
        "LONGITUDE": -60.73
    },
    {
        "CITY": "Belle Chasse",
        "STATE": "Louisiana",
        "COUNTRY": "U.S.A.",
        "LATITUDE": 29.85,
        "LONGITUDE": -89.98
    },
    {
        "CITY": "Belle Isle",
        "STATE": "Newfoundland and Labrador",
        "COUNTRY": "Canada",
        "LATITUDE": 51.7,
        "LONGITUDE": -55.96
    },
    {
        "CITY": "Belle Isle",
        "STATE": "Newfoundland and Labrador",
        "COUNTRY": "Canada",
        "LATITUDE": 51.78,
        "LONGITUDE": -56.01
    },
    {
        "CITY": "Belledune",
        "STATE": "New Brunswick",
        "COUNTRY": "Canada",
        "LATITUDE": 47.91,
        "LONGITUDE": -65.84
    },
    {
        "CITY": "Bellevue",
        "STATE": "Washington",
        "COUNTRY": "U.S.A.",
        "LATITUDE": 29.61,
        "LONGITUDE": -89.89
    },
    {
        "CITY": "Benchamas Terminal",
        "STATE": "Bangkok",
        "COUNTRY": "Thailand",
        "LATITUDE": 10.52,
        "LONGITUDE": 101.32
    },
    {
        "CITY": "Benghazi",
        "STATE": "Cyrenaica",
        "COUNTRY": "Libya",
        "LATITUDE": 32.12,
        "LONGITUDE": 20.05
    },
    {
        "CITY": "Benicia",
        "STATE": "California",
        "COUNTRY": "U.S.A.",
        "LATITUDE": 38.05,
        "LONGITUDE": -122.16
    },
    {
        "CITY": "Benoa",
        "STATE": "Bali",
        "COUNTRY": "Indonesia",
        "LATITUDE": -8.75,
        "LONGITUDE": 115.22
    },
    {
        "CITY": "Berbera",
        "STATE": "Woqooyi Galbeed",
        "COUNTRY": "Somalia",
        "LATITUDE": 10.44,
        "LONGITUDE": 44.99
    },
    {
        "CITY": "Berdyansk",
        "STATE": "Zaporizhzhia Oblast",
        "COUNTRY": "Ukraine",
        "LATITUDE": 46.75,
        "LONGITUDE": 36.77
    },
    {
        "CITY": "Bergen",
        "STATE": "Vestland",
        "COUNTRY": "Norway",
        "LATITUDE": 60.39,
        "LONGITUDE": 5.3
    },
    {
        "CITY": "Bayonne",
        "STATE": "New Jersey",
        "COUNTRY": "U.S.A.",
        "LATITUDE": 40.65,
        "LONGITUDE": -74.15
    },
    {
        "CITY": "Berrypoint",
        "STATE": "Alberta",
        "COUNTRY": "Canada",
        "LATITUDE": 49.3,
        "LONGITUDE": -123.09
    },
    {
        "CITY": "North Sydney",
        "STATE": "New South Wales",
        "COUNTRY": "Australia",
        "LATITUDE": -33.85,
        "LONGITUDE": 151.21
    },
    {
        "CITY": "Bethioua",
        "STATE": "Oran",
        "COUNTRY": "Algeria",
        "LATITUDE": 35.82,
        "LONGITUDE": -0.25
    },
    {
        "CITY": "Northfleet",
        "STATE": "Kent",
        "COUNTRY": "U.K.",
        "LATITUDE": 51.45,
        "LONGITUDE": 0.34
    },
    {
        "CITY": "Bhavnagar",
        "STATE": "Gujarat",
        "COUNTRY": "India",
        "LATITUDE": 21.75,
        "LONGITUDE": 72.29
    },
    {
        "CITY": "Biawak",
        "STATE": "Sarawak",
        "COUNTRY": "Malaysia",
        "LATITUDE": 1.74,
        "LONGITUDE": 110.53
    },
    {
        "CITY": "Bicudo",
        "STATE": "Minas Gerais",
        "COUNTRY": "Brazil",
        "LATITUDE": -22.73,
        "LONGITUDE": -40.72
    },
    {
        "CITY": "New Orleans",
        "STATE": "Louisiana",
        "COUNTRY": "U.S.A.",
        "LATITUDE": 29.95,
        "LONGITUDE": -90.06
    },
    {
        "CITY": "Big Bend National Park",
        "STATE": "Texas",
        "COUNTRY": "U.S.A.",
        "LATITUDE": 27.92,
        "LONGITUDE": -82.43
    },
    {
        "CITY": "Milford",
        "STATE": "Delaware",
        "COUNTRY": "U.S.A.",
        "LATITUDE": 38.95,
        "LONGITUDE": -75.18
    },
    {
        "CITY": "Bilbao",
        "STATE": "Biscay",
        "COUNTRY": "Spain",
        "LATITUDE": 43.35,
        "LONGITUDE": -3.03
    },
    {
        "CITY": "Bilbao",
        "STATE": "Basque Country",
        "COUNTRY": "Spain",
        "LATITUDE": 43.37,
        "LONGITUDE": -3.1
    },
    {
        "CITY": "Bima",
        "STATE": "West Nusa Tenggara",
        "COUNTRY": "Indonesia",
        "LATITUDE": -5.71,
        "LONGITUDE": 107.13
    },
    {
        "CITY": "Bintan Island",
        "STATE": "Riau Islands",
        "COUNTRY": "Indonesia",
        "LATITUDE": 0.85,
        "LONGITUDE": 104.61
    },
    {
        "CITY": "Bintulu",
        "STATE": "Sarawak",
        "COUNTRY": "Malaysia",
        "LATITUDE": 3.26,
        "LONGITUDE": 113.07
    },
    {
        "CITY": "Bintulu",
        "STATE": "Sarawak",
        "COUNTRY": "Malaysia",
        "LATITUDE": 3.26,
        "LONGITUDE": 113.06
    },
    {
        "CITY": "Bintulu",
        "STATE": "Sarawak",
        "COUNTRY": "Malaysia",
        "LATITUDE": 3.38,
        "LONGITUDE": 113.04
    },
    {
        "CITY": "Bintulu",
        "STATE": "Sarawak",
        "COUNTRY": "Malaysia",
        "LATITUDE": 3.33,
        "LONGITUDE": 113.0
    },
    {
        "CITY": "Bintuni",
        "STATE": "West Papua",
        "COUNTRY": "Indonesia",
        "LATITUDE": -2.42,
        "LONGITUDE": 133.03
    },
    {
        "CITY": "Bideford",
        "STATE": "England",
        "COUNTRY": "U.K.",
        "LATITUDE": 51.55,
        "LONGITUDE": -2.99
    },
    {
        "CITY": "Ankara",
        "STATE": "Ankara",
        "COUNTRY": "Turkey",
        "LATITUDE": 36.88,
        "LONGITUDE": 36.05
    },
    {
        "CITY": "Pasaia",
        "STATE": "Basque Country",
        "COUNTRY": "Spain",
        "LATITUDE": 43.32,
        "LONGITUDE": -1.92
    },
    {
        "CITY": "Bishop Rock",
        "STATE": "England",
        "COUNTRY": "U.K.",
        "LATITUDE": 49.63,
        "LONGITUDE": -6.33
    },
    {
        "CITY": "Bishop Rock",
        "STATE": "England",
        "COUNTRY": "U.K.",
        "LATITUDE": 49.72,
        "LONGITUDE": -6.33
    },
    {
        "CITY": "Bishop Rock",
        "STATE": "England",
        "COUNTRY": "U.K.",
        "LATITUDE": 49.95,
        "LONGITUDE": -6.67
    },
    {
        "CITY": "Bishop Rock",
        "STATE": "England",
        "COUNTRY": "U.K.",
        "LATITUDE": 49.95,
        "LONGITUDE": -6.8
    },
    {
        "CITY": "Bitung",
        "STATE": "North Sulawesi",
        "COUNTRY": "Indonesia",
        "LATITUDE": 1.43,
        "LONGITUDE": 125.19
    },
    {
        "CITY": "Bizerte",
        "STATE": "Bizerte Governorate",
        "COUNTRY": "Tunisia",
        "LATITUDE": 37.28,
        "LONGITUDE": 9.89
    },
    {
        "CITY": "Palmerston City",
        "STATE": "Northern Territory",
        "COUNTRY": "Australia",
        "LATITUDE": -14.4,
        "LONGITUDE": 129.35
    },
    {
        "CITY": "Blang Lancang",
        "STATE": "Aceh",
        "COUNTRY": "Indonesia",
        "LATITUDE": 5.27,
        "LONGITUDE": 97.08
    },
    {
        "CITY": "Meulaboh",
        "STATE": "Aceh",
        "COUNTRY": "Indonesia",
        "LATITUDE": 5.22,
        "LONGITUDE": 97.08
    },
    {
        "CITY": "Blenheim",
        "STATE": "England",
        "COUNTRY": "U.K.",
        "LATITUDE": 58.27,
        "LONGITUDE": 1.0
    },
    {
        "CITY": "Jacksonville",
        "STATE": "Florida",
        "COUNTRY": "U.S.A.",
        "LATITUDE": 30.35,
        "LONGITUDE": -81.62
    },
    {
        "CITY": "Bluff",
        "STATE": "Southland",
        "COUNTRY": "New Zealand",
        "LATITUDE": -46.59,
        "LONGITUDE": 168.35
    },
    {
        "CITY": "Blyth",
        "STATE": "Northumberland",
        "COUNTRY": "U.K.",
        "LATITUDE": 55.13,
        "LONGITUDE": -1.5
    },
    {
        "CITY": "Boca Chica",
        "STATE": "Santo Domingo",
        "COUNTRY": "Dominican Republic",
        "LATITUDE": 18.44,
        "LONGITUDE": -69.63
    },
    {
        "CITY": "Boca Grande",
        "STATE": "Falcón",
        "COUNTRY": "Venezuela",
        "LATITUDE": 9.96,
        "LONGITUDE": -61.58
    },
    {
        "CITY": "Boca Grande",
        "STATE": "Florida",
        "COUNTRY": "U.S.A.",
        "LATITUDE": 26.72,
        "LONGITUDE": -82.25
    },
    {
        "CITY": "Boca Grande",
        "STATE": "Venezuela",
        "COUNTRY": "Venezuela",
        "LATITUDE": 9.96,
        "LONGITUDE": -61.58
    },
    {
        "CITY": "Bodø",
        "STATE": "Nordland",
        "COUNTRY": "Norway",
        "LATITUDE": 67.29,
        "LONGITUDE": 14.38
    },
    {
        "CITY": "Bodo",
        "STATE": "Nordland",
        "COUNTRY": "Norway",
        "LATITUDE": 67.4,
        "LONGITUDE": 14.44
    },
    {
        "CITY": "Niceville",
        "STATE": "Florida",
        "COUNTRY": "U.S.A.",
        "LATITUDE": 29.75,
        "LONGITUDE": -95.29
    },
    {
        "CITY": "Houston",
        "STATE": "Texas",
        "COUNTRY": "U.S.A.",
        "LATITUDE": 29.73,
        "LONGITUDE": -95.14
    },
    {
        "CITY": "Bohai",
        "STATE": "Shandong",
        "COUNTRY": "China",
        "LATITUDE": 38.24,
        "LONGITUDE": 119.7
    },
    {
        "CITY": "Penglai",
        "STATE": "Shandong",
        "COUNTRY": "China",
        "LATITUDE": 38.37,
        "LONGITUDE": 120.08
    },
    {
        "CITY": "Bohemia",
        "STATE": "New York",
        "COUNTRY": "U.S.A.",
        "LATITUDE": 29.54,
        "LONGITUDE": -89.76
    },
    {
        "CITY": "Bohai Sea",
        "STATE": "Shandong",
        "COUNTRY": "China",
        "LATITUDE": 39.1,
        "LONGITUDE": 119.2
    },
    {
        "CITY": "Bojonegara",
        "STATE": "Banten",
        "COUNTRY": "Indonesia",
        "LATITUDE": -6.0,
        "LONGITUDE": 105.97
    },
    {
        "CITY": "Bollsta",
        "STATE": "Västernorrland",
        "COUNTRY": "Sweden",
        "LATITUDE": 62.64,
        "LONGITUDE": 17.94
    },
    {
        "CITY": "Boma",
        "STATE": "Kongo Central",
        "COUNTRY": "Congo, D.R.",
        "LATITUDE": -5.86,
        "LONGITUDE": 13.05
    },
    {
        "CITY": "Mumbai",
        "STATE": "Maharashtra",
        "COUNTRY": "India",
        "LATITUDE": 18.92,
        "LONGITUDE": 72.87
    },
    {
        "CITY": "Bonabéri",
        "STATE": "Littoral",
        "COUNTRY": "Cameroon",
        "LATITUDE": 4.04,
        "LONGITUDE": 9.68
    },
    {
        "CITY": "Kralendijk",
        "STATE": "Bonaire",
        "COUNTRY": "Netherlands Antilles",
        "LATITUDE": 12.15,
        "LONGITUDE": -68.28
    },
    {
        "CITY": "Bonga Terminal",
        "STATE": "Delta State.",
        "COUNTRY": "Nigeria",
        "LATITUDE": 4.57,
        "LONGITUDE": 4.63
    },
    {
        "CITY": "Bonifacio",
        "STATE": "Corsica",
        "COUNTRY": "France",
        "LATITUDE": 41.28,
        "LONGITUDE": 9.26
    },
    {
        "CITY": "Bonifacio",
        "STATE": "Corsica",
        "COUNTRY": "France",
        "LATITUDE": 41.29,
        "LONGITUDE": 9.26
    },
    {
        "CITY": "Bonito",
        "STATE": "Mato Grosso do Sul",
        "COUNTRY": "Brazil",
        "LATITUDE": -22.73,
        "LONGITUDE": -40.72
    },
    {
        "CITY": "Bonny",
        "STATE": "Rivers",
        "COUNTRY": "Nigeria",
        "LATITUDE": 4.42,
        "LONGITUDE": 7.13
    },
    {
        "CITY": "Bonny",
        "STATE": "Rivers State",
        "COUNTRY": "Nigeria",
        "LATITUDE": 4.42,
        "LONGITUDE": 7.13
    },
    {
        "CITY": "Bonny",
        "STATE": "Rivers State",
        "COUNTRY": "Nigeria",
        "LATITUDE": 4.13,
        "LONGITUDE": 7.24
    },
    {
        "CITY": "Bontang",
        "STATE": "East Kalimantan",
        "COUNTRY": "Indonesia",
        "LATITUDE": 0.03,
        "LONGITUDE": 117.53
    },
    {
        "CITY": "Bonaire",
        "STATE": "Bonaire",
        "COUNTRY": "Netherlands Antilles",
        "LATITUDE": 12.15,
        "LONGITUDE": -68.28
    },
    {
        "CITY": "Freeport",
        "STATE": "Bahamas",
        "COUNTRY": "Bahamas",
        "LATITUDE": 26.5,
        "LONGITUDE": -78.78
    },
    {
        "CITY": "Bordeaux",
        "STATE": "Nouvelle-Aquitaine",
        "COUNTRY": "France",
        "LATITUDE": 44.85,
        "LONGITUDE": -0.56
    },
    {
        "CITY": "Borg",
        "STATE": "Nordland",
        "COUNTRY": "Norway",
        "LATITUDE": 59.21,
        "LONGITUDE": 10.96
    },
    {
        "CITY": "Fredrikstad",
        "STATE": "Østfold",
        "COUNTRY": "Norway",
        "LATITUDE": 59.21,
        "LONGITUDE": 10.96
    },
    {
        "CITY": "Porvoo",
        "STATE": "Uusimaa",
        "COUNTRY": "Finland",
        "LATITUDE": 60.37,
        "LONGITUDE": 25.69
    },
    {
        "CITY": "Sikka",
        "STATE": "Gujarat",
        "COUNTRY": "India",
        "LATITUDE": 22.56,
        "LONGITUDE": 69.76
    },
    {
        "CITY": "Borongan City",
        "STATE": "Eastern Samar",
        "COUNTRY": "Philippines",
        "LATITUDE": 11.25,
        "LONGITUDE": 125.0
    },
    {
        "CITY": "Borsele",
        "STATE": "Zeeland",
        "COUNTRY": "Netherlands",
        "LATITUDE": 51.41,
        "LONGITUDE": 3.73
    },
    {
        "CITY": "Istanbul",
        "STATE": "Istanbul",
        "COUNTRY": "Turkey",
        "LATITUDE": 41.0,
        "LONGITUDE": 29.01
    },
    {
        "CITY": "Istanbul",
        "STATE": "Istanbul",
        "COUNTRY": "Turkey",
        "LATITUDE": 41.2,
        "LONGITUDE": 29.11
    },
    {
        "CITY": "Istanbul",
        "STATE": "Turkey",
        "COUNTRY": "Turkey",
        "LATITUDE": 41.2,
        "LONGITUDE": 29.11
    },
    {
        "CITY": "Boston Bay",
        "STATE": "South Australia",
        "COUNTRY": "Australia",
        "LATITUDE": -34.72,
        "LONGITUDE": 135.88
    },
    {
        "CITY": "Boston",
        "STATE": "Massachusetts",
        "COUNTRY": "U.S.A.",
        "LATITUDE": 42.36,
        "LONGITUDE": -71.04
    },
    {
        "CITY": "Boston",
        "STATE": "Lincolnshire",
        "COUNTRY": "U.K.",
        "LATITUDE": 52.97,
        "LONGITUDE": -0.01
    },
    {
        "CITY": "Botany Bay",
        "STATE": "New South Wales",
        "COUNTRY": "Australia",
        "LATITUDE": -33.99,
        "LONGITUDE": 151.21
    },
    {
        "CITY": "Ceyhan",
        "STATE": "Adana",
        "COUNTRY": "Turkey",
        "LATITUDE": 36.86,
        "LONGITUDE": 35.94
    },
    {
        "CITY": "Botas",
        "STATE": "Adana",
        "COUNTRY": "Turkey",
        "LATITUDE": 40.99,
        "LONGITUDE": 27.99
    },
    {
        "CITY": "Botlek",
        "STATE": "South Holland",
        "COUNTRY": "Netherlands",
        "LATITUDE": 51.88,
        "LONGITUDE": 4.29
    },
    {
        "CITY": "Botwood",
        "STATE": "Newfoundland and Labrador",
        "COUNTRY": "Canada",
        "LATITUDE": 49.14,
        "LONGITUDE": -55.33
    },
    {
        "CITY": "Botwood",
        "STATE": "Newfoundland and Labrador",
        "COUNTRY": "Canada",
        "LATITUDE": 50.12,
        "LONGITUDE": -53.73
    },
    {
        "CITY": "Boulogne-sur-Mer",
        "STATE": "Hauts-de-France",
        "COUNTRY": "France",
        "LATITUDE": 50.72,
        "LONGITUDE": 1.57
    },
    {
        "CITY": "Burgas",
        "STATE": "Burgas Province",
        "COUNTRY": "Bulgaria",
        "LATITUDE": 42.49,
        "LONGITUDE": 27.46
    },
    {
        "CITY": "Bouri",
        "STATE": "Libya",
        "COUNTRY": "Libya",
        "LATITUDE": 33.87,
        "LONGITUDE": 12.67
    },
    {
        "CITY": "Boynton Beach",
        "STATE": "Florida",
        "COUNTRY": "U.S.A.",
        "LATITUDE": 40.54,
        "LONGITUDE": -74.25
    },
    {
        "CITY": "Bozcaada",
        "STATE": "Çanakkale",
        "COUNTRY": "Turkey",
        "LATITUDE": 39.81,
        "LONGITUDE": 26.04
    },
    {
        "CITY": "Labuan",
        "STATE": "Labuan Federal Territory",
        "COUNTRY": "Malaysia",
        "LATITUDE": 5.13,
        "LONGITUDE": 115.21
    },
    {
        "CITY": "Braakman Harbour",
        "STATE": "Zeeland",
        "COUNTRY": "Netherlands",
        "LATITUDE": 51.34,
        "LONGITUDE": 3.81
    },
    {
        "CITY": "Braefoot Bay",
        "STATE": "Scotland",
        "COUNTRY": "U.K.",
        "LATITUDE": 56.03,
        "LONGITUDE": -3.31
    },
    {
        "CITY": "Braithwaite",
        "STATE": "Louisiana",
        "COUNTRY": "U.S.A.",
        "LATITUDE": 29.87,
        "LONGITUDE": -89.93
    },
    {
        "CITY": "Brake",
        "STATE": "Lower Saxony",
        "COUNTRY": "Germany",
        "LATITUDE": 53.33,
        "LONGITUDE": 8.49
    },
    {
        "CITY": "Singapore",
        "STATE": "Singapore",
        "COUNTRY": "Singapore",
        "LATITUDE": 1.27,
        "LONGITUDE": 103.83
    },
    {
        "CITY": "Brass",
        "STATE": "Bayelsa",
        "COUNTRY": "Nigeria",
        "LATITUDE": 4.09,
        "LONGITUDE": 6.32
    },
    {
        "CITY": "Braviken",
        "STATE": "Östergötland",
        "COUNTRY": "Sweden",
        "LATITUDE": 58.6,
        "LONGITUDE": 16.22
    },
    {
        "CITY": "Rio De La Plata",
        "STATE": "Buenos Aires",
        "COUNTRY": "Argentina",
        "LATITUDE": -35.53,
        "LONGITUDE": -56.54
    },
    {
        "CITY": "Somerset",
        "STATE": "Massachusetts",
        "COUNTRY": "U.S.A.",
        "LATITUDE": 41.71,
        "LONGITUDE": -71.19
    },
    {
        "CITY": "Tromsø",
        "STATE": "Troms og Finnmark",
        "COUNTRY": "Norway",
        "LATITUDE": 69.65,
        "LONGITUDE": 18.97
    },
    {
        "CITY": "Bremanger",
        "STATE": "Vestland",
        "COUNTRY": "Norway",
        "LATITUDE": 61.77,
        "LONGITUDE": 4.88
    },
    {
        "CITY": "Bremen",
        "STATE": "Bremen",
        "COUNTRY": "Germany",
        "LATITUDE": 53.12,
        "LONGITUDE": 8.7
    },
    {
        "CITY": "Bremerhaven",
        "STATE": "Bremen",
        "COUNTRY": "Germany",
        "LATITUDE": 53.56,
        "LONGITUDE": 8.55
    },
    {
        "CITY": "Brest",
        "STATE": "Brittany",
        "COUNTRY": "France",
        "LATITUDE": 48.37,
        "LONGITUDE": -4.49
    },
    {
        "CITY": "Breves",
        "STATE": "Pará",
        "COUNTRY": "Brazil",
        "LATITUDE": -1.69,
        "LONGITUDE": -50.49
    },
    {
        "CITY": "Brevik",
        "STATE": "Vestfold og Telemark",
        "COUNTRY": "Norway",
        "LATITUDE": 59.05,
        "LONGITUDE": 9.69
    },
    {
        "CITY": "Bridgeport",
        "STATE": "Connecticut",
        "COUNTRY": "U.S.A.",
        "LATITUDE": 41.17,
        "LONGITUDE": -73.18
    },
    {
        "CITY": "Brindisi",
        "STATE": "Apulia",
        "COUNTRY": "Italy",
        "LATITUDE": 40.66,
        "LONGITUDE": 17.98
    },
    {
        "CITY": "Brisbane",
        "STATE": "Queensland",
        "COUNTRY": "Australia",
        "LATITUDE": -27.38,
        "LONGITUDE": 153.17
    },
    {
        "CITY": "Bristol",
        "STATE": "Pennsylvania",
        "COUNTRY": "U.S.A.",
        "LATITUDE": 40.09,
        "LONGITUDE": -74.86
    },
    {
        "CITY": "Bristol",
        "STATE": "England",
        "COUNTRY": "U.K.",
        "LATITUDE": 51.45,
        "LONGITUDE": -2.62
    },
    {
        "CITY": "Brodick",
        "STATE": "Scotland",
        "COUNTRY": "U.K.",
        "LATITUDE": 55.58,
        "LONGITUDE": -5.14
    },
    {
        "CITY": "Brofjorden",
        "STATE": "Västra Götaland.",
        "COUNTRY": "Sweden",
        "LATITUDE": 58.36,
        "LONGITUDE": 11.44
    },
    {
        "CITY": "Bromborough",
        "STATE": "England",
        "COUNTRY": "U.K.",
        "LATITUDE": 53.45,
        "LONGITUDE": -3.02
    },
    {
        "CITY": "Brooklyn",
        "STATE": "New York",
        "COUNTRY": "U.S.A.",
        "LATITUDE": 40.69,
        "LONGITUDE": -74.01
    },
    {
        "CITY": "Brooklyn",
        "STATE": "New York",
        "COUNTRY": "U.S.A.",
        "LATITUDE": 40.7,
        "LONGITUDE": -74.0
    },
    {
        "CITY": "Broome",
        "STATE": "Western Australia",
        "COUNTRY": "Australia",
        "LATITUDE": -18.0,
        "LONGITUDE": 122.22
    },
    {
        "CITY": "Brownsville",
        "STATE": "Texas",
        "COUNTRY": "U.S.A.",
        "LATITUDE": 25.96,
        "LONGITUDE": -97.38
    },
    {
        "CITY": "Bruges",
        "STATE": "West Flanders",
        "COUNTRY": "Belgium",
        "LATITUDE": 51.23,
        "LONGITUDE": 3.22
    },
    {
        "CITY": "Brunsbüttel",
        "STATE": "Schleswig-Holstein",
        "COUNTRY": "Germany",
        "LATITUDE": 53.88,
        "LONGITUDE": 9.14
    },
    {
        "CITY": "Pattani",
        "STATE": "Pattani",
        "COUNTRY": "Thailand",
        "LATITUDE": 10.55,
        "LONGITUDE": 100.29
    },
    {
        "CITY": "Buchanan",
        "STATE": "Grand Bassa County",
        "COUNTRY": "Liberia",
        "LATITUDE": 5.86,
        "LONGITUDE": -10.05
    },
    {
        "CITY": "Uruma",
        "STATE": "Okinawa",
        "COUNTRY": "Japan",
        "LATITUDE": 26.22,
        "LONGITUDE": 127.79
    },
    {
        "CITY": "Bucksport",
        "STATE": "Maine",
        "COUNTRY": "U.S.A.",
        "LATITUDE": 44.57,
        "LONGITUDE": -68.8
    },
    {
        "CITY": "Budai Township",
        "STATE": "Chiayi County",
        "COUNTRY": "Taiwan",
        "LATITUDE": 22.58,
        "LONGITUDE": 120.3
    },
    {
        "CITY": "Buenaventura",
        "STATE": "Valle del Cauca",
        "COUNTRY": "Colombia",
        "LATITUDE": 3.89,
        "LONGITUDE": -77.07
    },
    {
        "CITY": "Buenos Aires",
        "STATE": "Buenos Aires",
        "COUNTRY": "Argentina",
        "LATITUDE": -34.59,
        "LONGITUDE": -58.36
    },
    {
        "CITY": "Buffalo",
        "STATE": "New York",
        "COUNTRY": "U.S.A.",
        "LATITUDE": 42.86,
        "LONGITUDE": -78.88
    },
    {
        "CITY": "Broome",
        "STATE": "Western Australia",
        "COUNTRY": "Australia",
        "LATITUDE": -10.66,
        "LONGITUDE": 126.09
    },
    {
        "CITY": "Dubbo",
        "STATE": "New South Wales",
        "COUNTRY": "Australia",
        "LATITUDE": -10.66,
        "LONGITUDE": 126.09
    },
    {
        "CITY": "Bugpyong",
        "STATE": "Gyeonggi-do",
        "COUNTRY": "South Korea",
        "LATITUDE": 37.49,
        "LONGITUDE": 129.14
    },
    {
        "CITY": "Bukpyung",
        "STATE": "Gangwon-do",
        "COUNTRY": "South Korea",
        "LATITUDE": 37.49,
        "LONGITUDE": 129.14
    },
    {
        "CITY": "Bula",
        "STATE": "Maluku",
        "COUNTRY": "Indonesia",
        "LATITUDE": -3.1,
        "LONGITUDE": 130.5
    },
    {
        "CITY": "Gothenburg",
        "STATE": "Västra Götaland",
        "COUNTRY": "Sweden",
        "LATITUDE": 56.03,
        "LONGITUDE": 12.69
    },
    {
        "CITY": "Bullen Bay",
        "STATE": "Curaçao",
        "COUNTRY": "Netherlands Antilles",
        "LATITUDE": 12.19,
        "LONGITUDE": -69.02
    },
    {
        "CITY": "Willemstad",
        "STATE": "Curaçao",
        "COUNTRY": "Netherlands Antilles",
        "LATITUDE": 12.19,
        "LONGITUDE": -69.02
    },
    {
        "CITY": "Bunati",
        "STATE": "South Kalimantan",
        "COUNTRY": "Indonesia",
        "LATITUDE": -3.9,
        "LONGITUDE": 115.76
    },
    {
        "CITY": "Bunbury",
        "STATE": "Western Australia",
        "COUNTRY": "Australia",
        "LATITUDE": -33.32,
        "LONGITUDE": 115.66
    },
    {
        "CITY": "Bundaberg",
        "STATE": "Queensland",
        "COUNTRY": "Australia",
        "LATITUDE": -24.77,
        "LONGITUDE": 152.38
    },
    {
        "CITY": "Bintulu",
        "STATE": "Sarawak",
        "COUNTRY": "Malaysia",
        "LATITUDE": 7.06,
        "LONGITUDE": 104.07
    },
    {
        "CITY": "Bunga Orkid",
        "STATE": "Malaysia",
        "COUNTRY": "Malaysia",
        "LATITUDE": 7.17,
        "LONGITUDE": 103.79
    },
    {
        "CITY": "Sandakan",
        "STATE": "Sabah",
        "COUNTRY": "Malaysia",
        "LATITUDE": 6.95,
        "LONGITUDE": 104.1
    },
    {
        "CITY": "Greenville",
        "STATE": "Mississippi",
        "COUNTRY": "U.S.A.",
        "LATITUDE": 29.93,
        "LONGITUDE": -90.35
    },
    {
        "CITY": "Bungo",
        "STATE": "Ōita",
        "COUNTRY": "Japan",
        "LATITUDE": 33.3,
        "LONGITUDE": 132.0
    },
    {
        "CITY": "Buras",
        "STATE": "Louisiana",
        "COUNTRY": "U.S.A.",
        "LATITUDE": 29.36,
        "LONGITUDE": -89.53
    },
    {
        "CITY": "Burbridge",
        "STATE": "N.D.",
        "COUNTRY": "U.S.A.",
        "LATITUDE": 29.67,
        "LONGITUDE": -89.96
    },
    {
        "CITY": "Burnie",
        "STATE": "Tasmania",
        "COUNTRY": "Australia",
        "LATITUDE": -41.05,
        "LONGITUDE": 145.91
    },
    {
        "CITY": "Burnside",
        "STATE": "Kentucky",
        "COUNTRY": "U.S.A.",
        "LATITUDE": 30.14,
        "LONGITUDE": -90.93
    },
    {
        "CITY": "Burnside",
        "STATE": "Mississippi",
        "COUNTRY": "U.S.A.",
        "LATITUDE": 30.12,
        "LONGITUDE": -90.92
    },
    {
        "CITY": "Burnside",
        "STATE": "Louisiana",
        "COUNTRY": "U.S.A.",
        "LATITUDE": 30.13,
        "LONGITUDE": -90.92
    },
    {
        "CITY": "Burravoe",
        "STATE": "Scotland",
        "COUNTRY": "U.K.",
        "LATITUDE": 60.46,
        "LONGITUDE": -1.3
    },
    {
        "CITY": "Burray",
        "STATE": "Scotland",
        "COUNTRY": "U.K.",
        "LATITUDE": 58.9,
        "LONGITUDE": -3.05
    },
    {
        "CITY": "Busan",
        "STATE": "South Gyeongsang",
        "COUNTRY": "South Korea",
        "LATITUDE": 35.11,
        "LONGITUDE": 129.06
    },
    {
        "CITY": "Bushehr",
        "STATE": "Bushehr Province",
        "COUNTRY": "Iran",
        "LATITUDE": 29.0,
        "LONGITUDE": 50.83
    },
    {
        "CITY": "Bushehr",
        "STATE": "Bushehr",
        "COUNTRY": "Iran",
        "LATITUDE": 29.0,
        "LONGITUDE": 50.83
    },
    {
        "CITY": "Butadiene Dock Island",
        "STATE": "Brazil",
        "COUNTRY": "Brazil",
        "LATITUDE": -22.82,
        "LONGITUDE": -43.15
    },
    {
        "CITY": "Mumbai",
        "STATE": "Maharashtra",
        "COUNTRY": "India",
        "LATITUDE": 18.96,
        "LONGITUDE": 72.91
    },
    {
        "CITY": "Būtingė",
        "STATE": "Klaipėda County",
        "COUNTRY": "Lithuania",
        "LATITUDE": 56.04,
        "LONGITUDE": 20.96
    },
    {
        "CITY": "Butterworth",
        "STATE": "Penang",
        "COUNTRY": "Malaysia",
        "LATITUDE": 5.37,
        "LONGITUDE": 100.36
    },
    {
        "CITY": "Stade",
        "STATE": "Lower Saxony",
        "COUNTRY": "Germany",
        "LATITUDE": 53.65,
        "LONGITUDE": 9.51
    },
    {
        "CITY": "Shenzhen",
        "STATE": "Guangdong",
        "COUNTRY": "China",
        "LATITUDE": 38.25,
        "LONGITUDE": 119.16
    },
    {
        "CITY": "Cabedelo",
        "STATE": "Paraíba",
        "COUNTRY": "Brazil",
        "LATITUDE": -6.97,
        "LONGITUDE": -34.84
    },
    {
        "CITY": "Cabinda",
        "STATE": "Cabinda Province",
        "COUNTRY": "Angola",
        "LATITUDE": -5.55,
        "LONGITUDE": 12.2
    },
    {
        "CITY": "Cabo Negro",
        "STATE": "Magallanes y de la Antártica Chilena",
        "COUNTRY": "Chile",
        "LATITUDE": -52.93,
        "LONGITUDE": -70.8
    },
    {
        "CITY": "Cabo San Antonio",
        "STATE": "Buenos Aires",
        "COUNTRY": "Argentina",
        "LATITUDE": -36.04,
        "LONGITUDE": -56.57
    },
    {
        "CITY": "Cádiz",
        "STATE": "Andalusia",
        "COUNTRY": "Spain",
        "LATITUDE": 36.54,
        "LONGITUDE": -6.28
    },
    {
        "CITY": "Caen",
        "STATE": "Normandy",
        "COUNTRY": "France",
        "LATITUDE": 49.18,
        "LONGITUDE": -0.34
    },
    {
        "CITY": "Caernarvon",
        "STATE": "Louisiana",
        "COUNTRY": "U.S.A.",
        "LATITUDE": 29.87,
        "LONGITUDE": -89.91
    },
    {
        "CITY": "Cagayan de Oro",
        "STATE": "Misamis Oriental",
        "COUNTRY": "Philippines",
        "LATITUDE": 8.5,
        "LONGITUDE": 124.66
    },
    {
        "CITY": "Cagliari",
        "STATE": "Sardinia",
        "COUNTRY": "Italy",
        "LATITUDE": 39.19,
        "LONGITUDE": 9.1
    },
    {
        "CITY": "Cai Mep",
        "STATE": "Bà Rịa-Vũng Tàu",
        "COUNTRY": "Vietnam",
        "LATITUDE": 10.53,
        "LONGITUDE": 107.02
    },
    {
        "CITY": "Phu My",
        "STATE": "Ba Ria-Vung Tau",
        "COUNTRY": "Vietnam",
        "LATITUDE": 10.51,
        "LONGITUDE": 107.01
    },
    {
        "CITY": "Cairns",
        "STATE": "Queensland",
        "COUNTRY": "Australia",
        "LATITUDE": -16.93,
        "LONGITUDE": 145.78
    },
    {
        "CITY": "Cakerawala Marine Terminal",
        "STATE": "Terengganu",
        "COUNTRY": "Malaysia",
        "LATITUDE": 7.13,
        "LONGITUDE": 103.1
    },
    {
        "CITY": "Cala Figuera",
        "STATE": "Balearic Islands",
        "COUNTRY": "Spain",
        "LATITUDE": 39.89,
        "LONGITUDE": 4.27
    },
    {
        "CITY": "Calabar",
        "STATE": "Cross River State",
        "COUNTRY": "Nigeria",
        "LATITUDE": 4.97,
        "LONGITUDE": 8.32
    },
    {
        "CITY": "Calais",
        "STATE": "Hauts-de-France",
        "COUNTRY": "France",
        "LATITUDE": 50.97,
        "LONGITUDE": 1.84
    },
    {
        "CITY": "Calbuco",
        "STATE": "Los Lagos",
        "COUNTRY": "Chile",
        "LATITUDE": -41.47,
        "LONGITUDE": -72.94
    },
    {
        "CITY": "Kolkata",
        "STATE": "West Bengal",
        "COUNTRY": "India",
        "LATITUDE": 22.55,
        "LONGITUDE": 88.29
    },
    {
        "CITY": "Caldera",
        "STATE": "Atacama",
        "COUNTRY": "Chile",
        "LATITUDE": -27.06,
        "LONGITUDE": -70.84
    },
    {
        "CITY": "Caldera",
        "STATE": "Puntarenas",
        "COUNTRY": "Costa Rica",
        "LATITUDE": 9.91,
        "LONGITUDE": -84.72
    },
    {
        "CITY": "Caleta Clarencia",
        "STATE": "Magallanes y la Antártica Chilena",
        "COUNTRY": "Chile",
        "LATITUDE": -52.93,
        "LONGITUDE": -70.16
    },
    {
        "CITY": "Comodoro Rivadavia",
        "STATE": "Chubut",
        "COUNTRY": "Argentina",
        "LATITUDE": -45.75,
        "LONGITUDE": -67.37
    },
    {
        "CITY": "Caleta Olivares",
        "STATE": "Santa Cruz",
        "COUNTRY": "Argentina",
        "LATITUDE": -45.87,
        "LONGITUDE": -67.48
    },
    {
        "CITY": "Caleta Olivia",
        "STATE": "Santa Cruz",
        "COUNTRY": "Argentina",
        "LATITUDE": -46.42,
        "LONGITUDE": -67.47
    },
    {
        "CITY": "Callao",
        "STATE": "Callao",
        "COUNTRY": "Peru",
        "LATITUDE": -12.05,
        "LONGITUDE": -77.15
    },
    {
        "CITY": "Calumet",
        "STATE": "Michigan",
        "COUNTRY": "U.S.A.",
        "LATITUDE": 41.88,
        "LONGITUDE": -87.61
    },
    {
        "CITY": "Port of Spain",
        "STATE": "Trinidad and Tobago",
        "COUNTRY": "Trinidad and Tobago",
        "LATITUDE": 10.09,
        "LONGITUDE": -61.04
    },
    {
        "CITY": "Cam Pha",
        "STATE": "Quang Ninh",
        "COUNTRY": "Vietnam",
        "LATITUDE": 21.02,
        "LONGITUDE": 107.38
    },
    {
        "CITY": "Camar Marine Terminal",
        "STATE": "Papua",
        "COUNTRY": "Indonesia",
        "LATITUDE": -6.28,
        "LONGITUDE": 113.0
    },
    {
        "CITY": "Camden",
        "STATE": "New Jersey",
        "COUNTRY": "U.S.A.",
        "LATITUDE": 39.94,
        "LONGITUDE": -75.14
    },
    {
        "CITY": "Hackberry",
        "STATE": "Louisiana",
        "COUNTRY": "U.S.A.",
        "LATITUDE": 30.04,
        "LONGITUDE": -93.33
    },
    {
        "CITY": "Campana",
        "STATE": "Buenos Aires",
        "COUNTRY": "Argentina",
        "LATITUDE": -34.15,
        "LONGITUDE": -58.96
    },
    {
        "CITY": "Campbeltown",
        "STATE": "Scotland",
        "COUNTRY": "U.K.",
        "LATITUDE": 55.42,
        "LONGITUDE": -5.6
    },
    {
        "CITY": "Campden Park",
        "STATE": "Saint Vincent",
        "COUNTRY": "St. Vincent",
        "LATITUDE": 13.15,
        "LONGITUDE": -61.23
    },
    {
        "CITY": "Cẩm Phả",
        "STATE": "Quảng Ninh",
        "COUNTRY": "Vietnam",
        "LATITUDE": 21.02,
        "LONGITUDE": 107.38
    },
    {
        "CITY": "No change needed: Campo Boe Oil Terminal",
        "STATE": "Italy.",
        "COUNTRY": "Italy",
        "LATITUDE": 44.28,
        "LONGITUDE": 8.46
    },
    {
        "CITY": "Çanakkale",
        "STATE": "Çanakkale",
        "COUNTRY": "Turkey",
        "LATITUDE": 40.15,
        "LONGITUDE": 26.4
    },
    {
        "CITY": "Abidjan",
        "STATE": "Abidjan Autonomous District",
        "COUNTRY": "Ivory Coast",
        "LATITUDE": 5.27,
        "LONGITUDE": -4.02
    },
    {
        "CITY": "Saint John",
        "STATE": "New Brunswick",
        "COUNTRY": "Canada",
        "LATITUDE": 45.26,
        "LONGITUDE": -66.06
    },
    {
        "CITY": "Saint John",
        "STATE": "New Brunswick",
        "COUNTRY": "Canada",
        "LATITUDE": 45.2,
        "LONGITUDE": -65.98
    },
    {
        "CITY": "Saint John",
        "STATE": "New Brunswick",
        "COUNTRY": "Canada",
        "LATITUDE": 45.19,
        "LONGITUDE": -65.99
    },
    {
        "CITY": "Cancun",
        "STATE": "Quintana Roo",
        "COUNTRY": "Mexico",
        "LATITUDE": 21.06,
        "LONGITUDE": -86.78
    },
    {
        "CITY": "Canoas",
        "STATE": "Rio Grande do Sul",
        "COUNTRY": "Brazil",
        "LATITUDE": -29.93,
        "LONGITUDE": -51.24
    },
    {
        "CITY": "Campeche",
        "STATE": "Campeche",
        "COUNTRY": "Mexico",
        "LATITUDE": 19.67,
        "LONGITUDE": -92.08
    },
    {
        "CITY": "Guangzhou",
        "STATE": "Guangdong",
        "COUNTRY": "China",
        "LATITUDE": 23.07,
        "LONGITUDE": 113.42
    },
    {
        "CITY": "Canvey Island",
        "STATE": "Essex",
        "COUNTRY": "U.K.",
        "LATITUDE": 51.5,
        "LONGITUDE": 0.57
    },
    {
        "CITY": "Canvey Island",
        "STATE": "England",
        "COUNTRY": "U.K.",
        "LATITUDE": 51.47,
        "LONGITUDE": 0.24
    },
    {
        "CITY": "Tangshan",
        "STATE": "Hebei",
        "COUNTRY": "China",
        "LATITUDE": 38.78,
        "LONGITUDE": 118.72
    },
    {
        "CITY": "Caofeidian",
        "STATE": "Hebei",
        "COUNTRY": "China",
        "LATITUDE": 38.91,
        "LONGITUDE": 118.5
    },
    {
        "CITY": "Caojing",
        "STATE": "Shanghai",
        "COUNTRY": "China",
        "LATITUDE": 30.77,
        "LONGITUDE": 121.45
    },
    {
        "CITY": "Shanghai",
        "STATE": "Shanghai",
        "COUNTRY": "China",
        "LATITUDE": 30.74,
        "LONGITUDE": 121.42
    },
    {
        "CITY": "Limbe",
        "STATE": "Southwest",
        "COUNTRY": "Cameroon",
        "LATITUDE": 3.98,
        "LONGITUDE": 9.13
    },
    {
        "CITY": "Touros",
        "STATE": "Rio Grande do Norte",
        "COUNTRY": "Brazil",
        "LATITUDE": -4.78,
        "LONGITUDE": -34.91
    },
    {
        "CITY": "Cape Cod",
        "STATE": "Massachusetts",
        "COUNTRY": "U.S.A.",
        "LATITUDE": 41.77,
        "LONGITUDE": -70.5
    },
    {
        "CITY": "Cape Cod Canal - South",
        "STATE": "Massachusetts",
        "COUNTRY": "U.S.A.",
        "LATITUDE": 41.68,
        "LONGITUDE": -70.68
    },
    {
        "CITY": "Cape Feto",
        "STATE": "Sicily",
        "COUNTRY": "Italy",
        "LATITUDE": 37.56,
        "LONGITUDE": 12.41
    },
    {
        "CITY": "Cape Horn",
        "STATE": "Magallanes Region",
        "COUNTRY": "Chile",
        "LATITUDE": -56.15,
        "LONGITUDE": -67.22
    },
    {
        "CITY": "Cape Leeuwin",
        "STATE": "Western Australia",
        "COUNTRY": "Australia",
        "LATITUDE": -34.63,
        "LONGITUDE": 114.59
    },
    {
        "CITY": "Cape Limboh",
        "STATE": "Southwest",
        "COUNTRY": "Cameroon",
        "LATITUDE": 3.98,
        "LONGITUDE": 9.13
    },
    {
        "CITY": "Cape of Good Hope",
        "STATE": "Western Cape",
        "COUNTRY": "South Africa",
        "LATITUDE": -34.7,
        "LONGITUDE": 18.12
    },
    {
        "CITY": "Harper",
        "STATE": "Maryland",
        "COUNTRY": "Liberia",
        "LATITUDE": 4.37,
        "LONGITUDE": -7.73
    },
    {
        "CITY": "Cape Race",
        "STATE": "Newfoundland and Labrador",
        "COUNTRY": "Canada",
        "LATITUDE": 46.27,
        "LONGITUDE": -52.81
    },
    {
        "CITY": "Cape Town",
        "STATE": "Western Cape",
        "COUNTRY": "South Africa",
        "LATITUDE": -33.91,
        "LONGITUDE": 18.43
    },
    {
        "CITY": "Santa Maria",
        "STATE": "Sal",
        "COUNTRY": "Cape Verde Is.",
        "LATITUDE": 16.74,
        "LONGITUDE": -22.98
    },
    {
        "CITY": "Cape Vincent",
        "STATE": "New York",
        "COUNTRY": "Canada",
        "LATITUDE": 44.13,
        "LONGITUDE": -76.35
    },
    {
        "CITY": "Cape Wrath",
        "STATE": "Scotland",
        "COUNTRY": "U.K.",
        "LATITUDE": 58.77,
        "LONGITUDE": -5.0
    },
    {
        "CITY": "Cape Zhelaniya",
        "STATE": "Arkhangelsk Oblast",
        "COUNTRY": "Russia",
        "LATITUDE": 76.95,
        "LONGITUDE": 68.61
    },
    {
        "CITY": "Capline Tanker Dock",
        "STATE": "Mississippi",
        "COUNTRY": "U.S.A.",
        "LATITUDE": 30.03,
        "LONGITUDE": -90.84
    },
    {
        "CITY": "Captain Field",
        "STATE": "England",
        "COUNTRY": "U.K.",
        "LATITUDE": 58.32,
        "LONGITUDE": -1.73
    },
    {
        "CITY": "Carboneras",
        "STATE": "Almería",
        "COUNTRY": "Spain",
        "LATITUDE": 36.97,
        "LONGITUDE": -1.9
    },
    {
        "CITY": "Cardiff",
        "STATE": "Wales",
        "COUNTRY": "U.K.",
        "LATITUDE": 51.45,
        "LONGITUDE": -3.16
    },
    {
        "CITY": "Carenero",
        "STATE": "Miranda",
        "COUNTRY": "Venezuela",
        "LATITUDE": 10.52,
        "LONGITUDE": -66.05
    },
    {
        "CITY": "Caripito",
        "STATE": "Monagas",
        "COUNTRY": "Venezuela",
        "LATITUDE": 10.15,
        "LONGITUDE": -63.03
    },
    {
        "CITY": "Carlisle",
        "STATE": "Pennsylvania",
        "COUNTRY": "U.S.A.",
        "LATITUDE": 29.68,
        "LONGITUDE": -89.96
    },
    {
        "CITY": "Martigues",
        "STATE": "Provence-Alpes-Côte d'Azur",
        "COUNTRY": "France",
        "LATITUDE": 43.34,
        "LONGITUDE": 5.34
    },
    {
        "CITY": "Carrara",
        "STATE": "Tuscany",
        "COUNTRY": "Italy",
        "LATITUDE": 44.03,
        "LONGITUDE": 10.04
    },
    {
        "CITY": "Cartagena",
        "STATE": "Murcia",
        "COUNTRY": "Spain",
        "LATITUDE": 37.57,
        "LONGITUDE": -0.96
    },
    {
        "CITY": "Cartagena",
        "STATE": "Bolívar",
        "COUNTRY": "Colombia",
        "LATITUDE": 10.4,
        "LONGITUDE": -75.54
    },
    {
        "CITY": "Cartagena",
        "STATE": "Murcia",
        "COUNTRY": "Spain",
        "LATITUDE": 37.57,
        "LONGITUDE": -0.98
    },
    {
        "CITY": "Carteret",
        "STATE": "New Jersey",
        "COUNTRY": "U.S.A.",
        "LATITUDE": 40.59,
        "LONGITUDE": -74.21
    },
    {
        "CITY": "Casablanca",
        "STATE": "Casablanca-Settat",
        "COUNTRY": "Morocco",
        "LATITUDE": 33.61,
        "LONGITUDE": -7.6
    },
    {
        "CITY": "Castellón de la Plana",
        "STATE": "Castellón",
        "COUNTRY": "Spain",
        "LATITUDE": 39.94,
        "LONGITUDE": 0.05
    },
    {
        "CITY": "Castellón de la Plana",
        "STATE": "Castellón",
        "COUNTRY": "Spain",
        "LATITUDE": 39.97,
        "LONGITUDE": 0.03
    },
    {
        "CITY": "Castellón de la Plana",
        "STATE": "Castellón",
        "COUNTRY": "Spain",
        "LATITUDE": 39.94,
        "LONGITUDE": 0.03
    },
    {
        "CITY": "Castellon de la Plana",
        "STATE": "Castellón",
        "COUNTRY": "Spain",
        "LATITUDE": 39.95,
        "LONGITUDE": 0.02
    },
    {
        "CITY": "Castlebay",
        "STATE": "Scotland",
        "COUNTRY": "U.K.",
        "LATITUDE": 56.95,
        "LONGITUDE": -7.49
    },
    {
        "CITY": "Castle Peak",
        "STATE": "Guangdong",
        "COUNTRY": "China",
        "LATITUDE": 22.36,
        "LONGITUDE": 113.92
    },
    {
        "CITY": "Castries",
        "STATE": "Castries.",
        "COUNTRY": "St. Lucia",
        "LATITUDE": 14.01,
        "LONGITUDE": -60.99
    },
    {
        "CITY": "Vung Tau",
        "STATE": "Ba Ria-Vung Tau",
        "COUNTRY": "Vietnam",
        "LATITUDE": 10.39,
        "LONGITUDE": 107.09
    },
    {
        "CITY": "Catania",
        "STATE": "Sicily",
        "COUNTRY": "Italy",
        "LATITUDE": 37.49,
        "LONGITUDE": 15.1
    },
    {
        "CITY": "Plymouth",
        "STATE": "England",
        "COUNTRY": "U.K.",
        "LATITUDE": 50.36,
        "LONGITUDE": -4.15
    },